City_ID,City,Country,Date,Lat,Lng,Max Temp,Humidity,Cloudiness,Wind Speed
0,Hithadhoo,MV,2021-06-11 20:39:12,-0.6,73.0833,83.57,74,65,10.92
1,Sinnamary,GF,2021-06-11 20:37:53,5.3833,-52.95,77.65,85,100,4.16
2,Punta Arenas,CL,2021-06-11 20:39:13,-53.15,-70.9167,41.11,87,100,9.22
3,Atuona,PF,2021-06-11 20:36:53,-9.8,-139.0333,78.98,76,40,17.34
4,Naze,JP,2021-06-11 20:39:13,28.3667,129.4833,74.68,89,100,4.29
5,Madingou,CG,2021-06-11 20:39:14,-4.1536,13.55,77.23,74,63,3.98
6,Aykhal,RU,2021-06-11 20:39:14,66.0,111.5,40.73,67,43,16.42
7,Hermanus,ZA,2021-06-11 20:39:15,-34.4187,19.2345,62.91,68,100,1.79
8,Bluff,NZ,2021-06-11 20:39:15,-46.6,168.3333,43.03,84,4,6.87
9,Bartica,GY,2021-06-11 20:39:16,6.4,-58.6167,81.41,73,75,4.7
10,Noshiro,JP,2021-06-11 20:39:16,40.2039,140.0242,65.17,75,100,2.98
11,Tabou,CI,2021-06-11 20:39:16,4.423,-7.3528,77.43,87,99,3.49
12,Port Alfred,ZA,2021-06-11 20:36:49,-33.5906,26.891,68.63,52,49,7.36
13,Mataura,NZ,2021-06-11 20:39:17,-46.1927,168.8643,37.67,91,0,3.31
14,Ribeira Grande,PT,2021-06-11 20:39:18,38.5167,-28.7,72.0,83,40,8.05
15,Kupang,ID,2021-06-11 20:39:18,-10.1667,123.5833,75.67,79,12,10.76
16,Kruisfontein,ZA,2021-06-11 20:39:19,-34.0033,24.7314,63.23,44,6,6.46
17,Grand Gaube,MU,2021-06-11 20:39:19,-20.0064,57.6608,75.6,70,96,10.0
18,Ocampo,MX,2021-06-11 20:39:20,21.65,-101.5,80.28,24,25,15.26
19,Butaritari,KI,2021-06-11 20:39:20,3.0707,172.7902,81.93,76,100,13.38
20,Tuktoyaktuk,CA,2021-06-11 20:36:47,69.4541,-133.0374,41.0,87,40,8.05
21,Yellowknife,CA,2021-06-11 20:39:21,62.456,-114.3525,52.32,100,90,11.5
22,Cidreira,BR,2021-06-11 20:39:22,-30.1811,-50.2056,56.19,55,16,13.4
23,Damara,CF,2021-06-11 20:39:22,4.9608,18.7035,83.62,71,76,1.25
24,Los Llanos De Aridane,ES,2021-06-11 20:39:22,28.6585,-17.9182,73.15,36,0,11.5
25,Imbituba,BR,2021-06-11 20:39:23,-28.24,-48.6703,66.09,77,34,11.03
26,La Orilla,MX,2021-06-11 20:39:23,17.9833,-102.2333,85.77,62,97,9.31
27,Ushuaia,AR,2021-06-11 20:36:30,-54.8,-68.3,38.86,81,0,2.3
28,Pisco,PE,2021-06-11 20:39:24,-13.7,-76.2167,68.05,68,75,17.27
29,Khatanga,RU,2021-06-11 20:37:09,71.9667,102.5,36.91,67,75,3.91
30,Verkhoyansk,RU,2021-06-11 20:39:25,67.5447,133.385,60.26,48,96,7.49
31,Dingle,PH,2021-06-11 20:39:25,10.9995,122.6711,76.35,92,86,1.77
32,Toowoomba,AU,2021-06-11 20:39:26,-27.55,151.9667,42.26,92,100,3.74
33,Jamestown,US,2021-06-11 20:35:39,42.097,-79.2353,82.04,54,1,5.75
34,Moree,AU,2021-06-11 20:39:27,-29.4667,149.85,48.22,93,90,5.75
35,Isiolo,KE,2021-06-11 20:39:27,0.3546,37.5822,67.06,73,5,11.39
36,Morondava,MG,2021-06-11 20:38:16,-20.2833,44.2833,68.97,81,5,11.23
37,San Patricio,US,2021-06-11 20:39:28,28.017,-97.5169,94.01,52,2,14.07
38,Georgetown,MY,2021-06-11 20:39:28,5.4112,100.3354,81.9,88,20,5.01
39,Provideniya,RU,2021-06-11 20:39:29,64.3833,-173.3,39.85,93,100,9.69
40,East London,ZA,2021-06-11 20:37:00,-33.0153,27.9116,69.37,44,48,7.18
41,Kenai,US,2021-06-11 20:39:29,60.5544,-151.2583,62.02,70,1,13.8
42,Puerto Ayora,EC,2021-06-11 20:39:30,-0.7393,-90.3518,82.36,88,92,8.99
43,Vardo,NO,2021-06-11 20:37:55,70.3705,31.1107,62.8,88,0,4.61
44,Touros,BR,2021-06-11 20:39:31,-5.1989,-35.4608,81.5,73,55,16.87
45,Rikitea,PF,2021-06-11 20:39:31,-23.1203,-134.9692,75.83,84,99,12.21
46,Esperance,AU,2021-06-11 20:37:53,-33.8667,121.9,58.84,82,100,6.08
47,Kirakira,SB,2021-06-11 20:39:32,-10.4544,161.9205,80.38,83,73,8.52
48,Chicama,PE,2021-06-11 20:39:33,-7.8447,-79.1469,64.94,70,23,9.8
49,Lebedinyy,RU,2021-06-11 20:39:33,58.5167,125.5167,50.7,82,8,4.68
50,Busselton,AU,2021-06-11 20:39:34,-33.65,115.3333,51.08,86,100,5.01
51,Lompoc,US,2021-06-11 20:39:34,34.6391,-120.4579,81.7,57,1,20.71
52,Kharp,RU,2021-06-11 20:39:35,66.8014,65.8081,54.34,78,100,4.41
53,Bambous Virieux,MU,2021-06-11 20:36:38,-20.3428,57.7575,75.45,73,75,13.8
54,Rio Cuarto,AR,2021-06-11 20:39:35,-33.1307,-64.3499,71.37,30,0,6.91
55,Torbay,CA,2021-06-11 20:39:36,47.6666,-52.7314,50.16,81,75,8.05
56,Windhoek,NA,2021-06-11 20:39:36,-22.5594,17.0832,59.2,36,24,2.3
57,Longyearbyen,SJ,2021-06-11 20:39:37,78.2186,15.6401,35.44,69,75,3.44
58,Hasaki,JP,2021-06-11 20:39:37,35.7333,140.8333,63.28,74,100,9.8
59,Vaini,TO,2021-06-11 20:36:39,-21.2,-175.2,73.56,68,40,11.5
60,Mwinilunga,ZM,2021-06-11 20:39:38,-11.7358,24.4293,56.62,50,44,5.01
61,Redmond,US,2021-06-11 20:39:39,47.674,-122.1215,58.75,86,100,1.99
62,Upernavik,GL,2021-06-11 20:39:39,72.7868,-56.1549,35.06,93,36,11.97
63,Khasan,RU,2021-06-11 20:39:40,42.4308,130.6434,59.92,90,0,4.74
64,Chuy,UY,2021-06-11 20:39:40,-33.6971,-53.4616,49.59,66,100,8.97
65,Tasiilaq,GL,2021-06-11 20:37:19,65.6145,-37.6368,41.16,97,100,5.06
66,Mar Del Plata,AR,2021-06-11 20:39:41,-38.0023,-57.5575,55.13,61,0,11.01
67,Norman Wells,CA,2021-06-11 20:39:41,65.282,-126.8329,59.04,77,75,2.3
68,Nizhniy Chir,RU,2021-06-11 20:39:42,48.3597,43.0865,64.44,79,15,6.96
69,Tiksi,RU,2021-06-11 20:39:42,71.6872,128.8694,48.63,69,100,8.5
70,Suhbaatar,MN,2021-06-11 20:39:43,50.2314,106.2078,49.03,82,100,3.91
71,Saint-Philippe,RE,2021-06-11 20:39:43,-21.3585,55.7679,72.99,79,98,15.46
72,Bubaque,GW,2021-06-11 20:39:44,11.2833,-15.8333,80.2,81,100,12.1
73,San Jose,US,2021-06-11 20:35:22,37.3394,-121.895,81.77,36,20,1.99
74,Lucieni,RO,2021-06-11 20:39:44,44.85,25.4333,61.09,87,96,5.03
75,Chunoyar,RU,2021-06-11 20:39:45,57.4467,97.3217,39.31,70,6,3.42
76,Albany,US,2021-06-11 20:38:58,42.6001,-73.9662,74.44,66,100,2.1
77,Sao Joao Da Barra,BR,2021-06-11 20:36:55,-21.6403,-41.0511,75.29,88,60,6.2
78,Marawi,PH,2021-06-11 20:38:31,7.9986,124.2928,65.64,98,100,2.55
79,Barcelos,PT,2021-06-11 20:39:34,41.5388,-8.6151,75.34,69,82,9.26
80,Lebu,CL,2021-06-11 20:36:50,-37.6167,-73.65,56.82,90,68,3.69
81,Victoria,HK,2021-06-11 20:37:25,22.2855,114.1577,84.33,90,84,7.0
82,Mushie,CD,2021-06-11 20:39:47,-3.0167,16.9,82.06,41,88,1.74
83,The Pas,CA,2021-06-11 20:39:47,53.8251,-101.2541,55.42,100,90,11.5
84,Bengkulu,ID,2021-06-11 20:39:48,-3.8004,102.2655,75.06,86,91,3.83
85,Cabo San Lucas,MX,2021-06-11 20:38:39,22.8909,-109.9124,100.81,65,1,9.22
86,Lagoa,PT,2021-06-11 20:39:48,39.05,-27.9833,67.64,83,17,2.55
87,Castro,BR,2021-06-11 20:39:49,-24.7911,-50.0119,54.55,89,15,2.55
88,Kavaratti,IN,2021-06-11 20:39:50,10.5669,72.642,83.28,78,100,19.82
89,Dwarka,IN,2021-06-11 20:39:50,22.2394,68.9678,85.46,81,45,19.73
90,Avarua,CK,2021-06-11 20:39:50,-21.2078,-159.775,75.25,64,91,9.22
91,Nago,JP,2021-06-11 20:39:51,26.5881,127.9761,79.65,91,91,3.71
92,Cupertino,US,2021-06-11 20:39:51,37.323,-122.0322,81.23,38,20,1.99
93,Hilo,US,2021-06-11 20:39:52,19.7297,-155.09,80.8,64,20,8.05
94,Emba,KZ,2021-06-11 20:39:52,48.8264,58.1442,73.96,39,99,15.57
95,Coquimbo,CL,2021-06-11 20:39:16,-29.9533,-71.3436,63.3,65,33,4.63
96,Champerico,GT,2021-06-11 20:39:53,14.3,-91.9167,90.14,72,90,8.63
97,Ayan,RU,2021-06-11 20:39:54,56.45,138.1667,42.94,89,100,12.37
98,Codrington,AU,2021-06-11 20:39:54,-38.2667,141.9667,47.95,93,34,5.91
99,Yuncheng,CN,2021-06-11 20:39:54,35.0231,110.9928,76.42,60,100,6.53
100,Korla,CN,2021-06-11 20:39:11,41.7597,86.1469,71.73,37,86,1.57
101,Antalaha,MG,2021-06-11 20:39:55,-14.9003,50.2788,72.77,77,98,8.5
102,Plettenberg Bay,ZA,2021-06-11 20:39:56,-34.0527,23.3716,65.12,50,65,4.25
103,Severo-Kurilsk,RU,2021-06-11 20:36:44,50.6789,156.125,49.21,76,100,5.53
104,General Pico,AR,2021-06-11 20:39:56,-35.6566,-63.7568,60.44,49,5,8.97
105,Saskylakh,RU,2021-06-11 20:39:57,71.9167,114.0833,38.55,74,98,15.55
106,Bredasdorp,ZA,2021-06-11 20:39:57,-34.5322,20.0403,51.12,93,100,3.44
107,Guerrero Negro,MX,2021-06-11 20:36:49,27.9769,-114.0611,70.45,58,3,22.21
108,Cape Town,ZA,2021-06-11 20:36:43,-33.9258,18.4232,63.12,61,0,5.75
109,Luau,AO,2021-06-11 20:39:58,-10.7073,22.2247,61.59,45,6,6.53
110,Qaanaaq,GL,2021-06-11 20:39:58,77.484,-69.3632,39.92,76,94,4.85
111,Bethel,US,2021-06-11 20:37:37,41.3712,-73.414,77.34,48,1,9.22
112,Hofn,IS,2021-06-11 20:39:59,64.2539,-15.2082,45.97,57,55,21.54
113,Holland,US,2021-06-11 20:39:59,42.7875,-86.1089,91.72,58,48,6.98
114,Sur,OM,2021-06-11 20:40:00,22.5667,59.5289,85.8,73,0,9.37
115,Kaitangata,NZ,2021-06-11 20:37:51,-46.2817,169.8464,38.84,87,2,4.18
116,Pacific Grove,US,2021-06-11 20:39:13,36.6177,-121.9166,81.57,56,1,4.0
117,Mukhen,RU,2021-06-11 20:40:01,48.1,136.1,60.57,99,100,3.22
118,Payo,ID,2021-06-11 20:40:02,-3.7508,103.6372,71.31,93,97,1.57
119,Kloulklubed,PW,2021-06-11 20:40:02,7.0419,134.2556,77.5,73,98,10.31
120,Pevek,RU,2021-06-11 20:40:04,69.7008,170.3133,33.84,87,22,6.22
121,Belyy Yar,RU,2021-06-11 20:40:04,53.6039,91.3903,46.29,66,0,4.47
122,Kodiak,US,2021-06-11 20:37:39,57.79,-152.4072,49.51,81,90,6.91
123,Jaguaruna,BR,2021-06-11 20:40:05,-28.615,-49.0256,59.34,78,62,10.8
124,Sitka,US,2021-06-11 20:40:06,57.0531,-135.33,55.29,76,75,6.91
125,Talnakh,RU,2021-06-11 20:40:07,69.4865,88.3972,34.12,100,100,4.27
126,Kushikino,JP,2021-06-11 20:39:13,31.7167,130.2667,72.09,97,100,6.13
127,Tubmanburg,LR,2021-06-11 20:40:07,6.8708,-10.8172,75.38,91,100,1.5
128,Boysun,UZ,2021-06-11 20:40:08,38.2061,67.1986,73.27,27,0,11.14
129,Mecca,SA,2021-06-11 20:40:08,21.4267,39.8261,90.45,30,26,4.68
130,Balabac,PH,2021-06-11 20:40:09,7.9868,117.0645,82.4,75,99,8.03
131,Naron,ES,2021-06-11 20:40:10,43.5167,-8.1528,67.05,85,1,14.2
132,Acapulco,MX,2021-06-11 20:39:27,16.8634,-99.8901,82.22,78,90,4.61
133,Tuatapere,NZ,2021-06-11 20:40:10,-46.1333,167.6833,43.57,87,2,5.53
134,Poum,NC,2021-06-11 20:40:11,-20.2333,164.0167,75.43,77,100,22.75
135,Hami,CN,2021-06-11 20:40:11,42.8,93.45,79.27,28,100,11.97
136,Dalmatovo,RU,2021-06-11 20:40:12,56.26,62.9362,57.96,56,82,3.62
137,Montepuez,MZ,2021-06-11 20:40:12,-13.1256,38.9997,65.34,70,64,6.98
138,Saint George,US,2021-06-11 20:36:50,37.1041,-113.5841,95.47,6,1,1.99
139,The Valley,AI,2021-06-11 20:35:25,18.217,-63.0578,82.81,89,75,9.22
140,Tura,IN,2021-06-11 20:39:21,25.5198,90.2201,73.42,97,100,3.53
141,Usinsk,RU,2021-06-11 20:40:13,65.9939,57.5281,63.12,42,98,12.01
142,La Ronge,CA,2021-06-11 20:40:14,55.1001,-105.2842,55.65,94,90,9.22
143,Senno,RU,2021-06-11 20:40:15,59.5336,33.9167,54.27,73,100,4.21
144,Saldanha,ZA,2021-06-11 20:37:28,-33.0117,17.9442,51.85,82,98,6.91
145,Puerto Colombia,CO,2021-06-11 20:40:15,10.9878,-74.9547,89.69,78,69,14.12
146,Zyryanovsk,KZ,2021-06-11 20:40:16,49.7386,84.2719,50.23,90,99,3.44
147,Axim,GH,2021-06-11 20:40:16,4.8699,-2.2405,79.9,82,19,9.6
148,Teguldet,RU,2021-06-11 20:40:16,57.3064,88.1667,39.4,70,2,3.78
149,Carnarvon,AU,2021-06-11 20:40:17,-24.8667,113.6333,57.27,66,83,5.75
150,Leningradskiy,RU,2021-06-11 20:40:17,69.3833,178.4167,34.18,90,62,4.79
151,Launceston,AU,2021-06-11 20:40:18,-41.45,147.1667,53.24,88,90,1.99
152,Sioux City,US,2021-06-11 20:39:12,42.5,-96.4003,82.31,58,20,8.99
153,Hobart,AU,2021-06-11 20:40:18,-42.8794,147.3294,56.01,96,90,3.0
154,Anloga,GH,2021-06-11 20:40:19,5.7947,0.8973,80.82,80,99,15.64
155,Lake City,US,2021-06-11 20:39:17,30.1897,-82.6393,94.75,43,40,13.8
156,Colonia,DE,2021-06-11 20:36:04,50.9333,6.95,71.82,71,0,0.0
157,Sao Filipe,CV,2021-06-11 20:40:20,14.8961,-24.4956,73.31,85,67,4.45
158,Arraial Do Cabo,BR,2021-06-11 20:40:20,-22.9661,-42.0278,73.36,88,75,9.22
159,Nata,PA,2021-06-11 20:40:21,8.3333,-80.5167,84.07,70,75,4.65
160,Cooma,AU,2021-06-11 20:40:21,-36.2333,149.1333,46.17,70,90,13.8
161,Istisu,AZ,2021-06-11 20:40:21,40.9457,48.0738,61.47,85,30,3.65
162,Tessalit,ML,2021-06-11 20:40:22,20.1986,1.0114,97.99,9,11,11.21
163,Simpang,ID,2021-06-11 20:40:22,-1.2667,104.0833,76.01,88,100,3.18
164,Visnes,NO,2021-06-11 20:40:23,59.3556,5.2242,57.58,94,20,20.71
165,Artyom,AZ,2021-06-11 20:40:23,40.4723,50.333,71.74,80,0,21.99
166,Ponta Do Sol,PT,2021-06-11 20:40:24,32.6667,-17.1,75.83,67,0,5.23
167,Qarqin,AF,2021-06-11 20:40:24,37.4185,66.0436,86.83,18,0,14.29
168,Hirara,JP,2021-06-11 20:40:24,24.8,125.2833,81.77,83,100,11.95
169,Narsaq,GL,2021-06-11 20:40:25,60.9167,-46.05,50.22,80,99,3.67
170,Brae,GB,2021-06-11 20:40:25,60.3964,-1.353,49.91,83,78,22.53
171,Stephenville,US,2021-06-11 20:40:26,32.2207,-98.2023,93.29,56,1,13.8
172,Kayes,ML,2021-06-11 20:40:26,14.0,-11.0,92.23,38,81,2.55
173,Huarmey,PE,2021-06-11 20:40:27,-10.0681,-78.1522,69.69,73,12,10.56
174,Jutai,BR,2021-06-11 20:40:27,-5.1833,-68.9,81.05,75,100,1.19
175,Amguri,IN,2021-06-11 20:40:28,26.8,94.5333,76.1,96,100,3.71
176,Sorland,NO,2021-06-11 20:40:28,67.667,12.6934,51.87,97,100,15.68
177,Cap-Aux-Meules,CA,2021-06-11 20:40:29,47.3821,-61.8597,55.45,62,40,9.22
178,Yatou,CN,2021-06-11 20:40:29,37.15,122.3833,64.09,93,87,3.11
179,Hamilton,US,2021-06-11 20:37:07,39.1834,-84.5333,87.19,83,75,3.0
180,Cloquet,US,2021-06-11 20:40:30,46.7216,-92.4594,63.79,93,90,8.05
181,Faya,SA,2021-06-11 20:40:30,18.3851,42.4509,73.92,29,97,2.17
182,Yelizovo,RU,2021-06-11 20:40:31,53.1873,158.3805,57.34,72,75,8.95
183,Sisimiut,GL,2021-06-11 20:40:31,66.9395,-53.6735,39.85,71,60,6.51
184,Kahului,US,2021-06-11 20:36:53,20.8947,-156.47,85.96,62,20,20.71
185,Poya,NC,2021-06-11 20:40:32,-21.35,165.15,71.69,81,100,7.56
186,San Policarpo,PH,2021-06-11 20:40:32,12.1791,125.5072,76.41,89,100,4.81
187,Mount Isa,AU,2021-06-11 20:40:33,-20.7333,139.5,35.37,64,3,0.0
188,Banjar,ID,2021-06-11 20:40:33,-8.19,114.9675,76.86,88,68,2.89
189,Coahuayana,MX,2021-06-11 20:40:33,18.7333,-103.6833,87.49,58,100,6.96
190,Nome,US,2021-06-11 20:40:18,64.5011,-165.4064,46.17,93,90,10.36
191,Nikolskoye,RU,2021-06-11 20:40:34,59.7035,30.7861,64.29,92,100,2.86
192,Myitkyina,MM,2021-06-11 20:40:34,25.3833,97.4,75.6,99,100,1.99
193,Lavrentiya,RU,2021-06-11 20:40:35,65.5833,-171.0,36.63,97,100,5.82
194,Mgandu,TZ,2021-06-11 20:40:35,-5.95,34.1333,58.19,65,5,5.66
195,Laguna,US,2021-06-11 20:40:36,38.421,-121.4238,84.65,23,1,5.01
196,Sabha,LY,2021-06-11 20:40:36,27.0377,14.4283,81.48,24,0,11.88
197,Fairbanks,US,2021-06-11 20:39:11,64.8378,-147.7164,67.1,58,90,8.05
198,Vila Velha,BR,2021-06-11 20:40:18,-20.3297,-40.2925,76.95,83,75,6.91
199,Upata,VE,2021-06-11 20:40:37,8.0086,-62.3989,84.2,69,94,3.87
200,Ishinomaki,JP,2021-06-11 20:40:37,38.4167,141.3,65.05,89,100,9.33
201,Nampula,MZ,2021-06-11 20:40:38,-15.1165,39.2666,66.15,82,40,8.05
202,Ancud,CL,2021-06-11 20:38:00,-41.8697,-73.8203,56.43,94,100,19.26
203,Beringovskiy,RU,2021-06-11 20:40:38,63.05,179.3167,36.95,96,100,4.59
204,Airai,TL,2021-06-11 20:40:39,-8.9266,125.4092,56.39,93,40,3.22
205,Paamiut,GL,2021-06-11 20:40:39,61.994,-49.6678,37.65,85,100,0.76
206,Mirador,BR,2021-06-11 20:40:39,-6.3708,-44.3631,81.34,48,59,1.63
207,Cayenne,GF,2021-06-11 20:40:40,4.9333,-52.3333,75.24,90,0,2.3
208,Port Elizabeth,ZA,2021-06-11 20:40:40,-33.918,25.5701,53.89,82,20,5.75
209,Aktau,KZ,2021-06-11 20:40:41,43.65,51.2,73.98,56,10,14.54
210,Varangaon,IN,2021-06-11 20:40:41,21.0167,75.9,82.81,66,8,16.6
211,Nanortalik,GL,2021-06-11 20:40:42,60.1432,-45.2371,36.79,93,99,1.1
212,Itarema,BR,2021-06-11 20:40:42,-2.9248,-39.9167,79.5,78,12,11.7
213,Ahipara,NZ,2021-06-11 20:40:42,-35.1667,173.1667,58.08,89,100,6.76
214,Labuhan,ID,2021-06-11 20:40:43,-6.8844,112.2051,76.64,88,10,7.45
215,Vostok,RU,2021-06-11 20:40:43,46.4856,135.8833,56.14,99,100,2.46
216,Kapaa,US,2021-06-11 20:40:43,22.0752,-159.319,84.18,68,1,4.0
217,Cherskiy,RU,2021-06-11 20:40:44,68.75,161.3,41.56,60,34,9.15
218,Lazaro Cardenas,MX,2021-06-11 20:40:44,17.9583,-102.2,85.62,63,94,9.1
219,Chateaudun,FR,2021-06-11 20:40:45,48.0833,1.3333,71.8,73,0,3.44
220,Hendek,TR,2021-06-11 20:40:33,40.7994,30.7481,55.72,91,2,3.49
221,Yulara,AU,2021-06-11 20:40:46,-25.2406,130.9889,46.24,39,90,5.75
222,Dikson,RU,2021-06-11 20:40:46,73.5069,80.5464,31.8,99,100,4.79
223,San Cristobal,VE,2021-06-11 20:37:59,7.7669,-72.225,84.38,63,43,5.68
224,Chiradzulu,MW,2021-06-11 20:40:47,-15.6746,35.1407,53.51,69,0,3.47
225,Gambissara,SN,2021-06-11 20:40:47,13.2382,-14.3108,88.59,56,96,4.23
226,Barrow,US,2021-06-11 20:40:48,71.2906,-156.7887,35.62,87,90,9.22
227,Guisa,CU,2021-06-11 20:40:48,20.255,-76.5386,84.51,80,90,2.53
228,Erenhot,CN,2021-06-11 20:40:49,43.6475,111.9767,70.52,43,3,10.25
229,Asmara,ER,2021-06-11 20:40:49,15.3333,38.9333,68.81,17,58,5.19
230,Malia,GR,2021-06-11 20:40:49,35.2833,25.4667,69.66,79,1,2.71
231,Tongchuan,CN,2021-06-11 20:40:50,35.0806,109.0897,72.37,63,100,4.32
232,Kyren,RU,2021-06-11 20:40:50,51.6828,102.1408,46.45,94,89,1.79
233,Ormara,PK,2021-06-11 20:40:51,25.2088,64.6357,83.79,82,82,16.53
234,Lata,PT,2021-06-11 20:40:51,40.1629,-8.3327,69.04,71,100,5.08
235,Hudson Bay,CA,2021-06-11 20:40:52,52.85,-102.3842,52.39,98,100,7.83
236,Luwuk,ID,2021-06-11 20:40:53,-0.9516,122.7875,77.43,81,17,3.65
237,Lasa,IT,2021-06-11 20:38:02,46.6166,10.7002,67.08,93,33,5.66
238,Darab,IR,2021-06-11 20:40:53,28.7519,54.5444,86.79,16,1,1.43
239,Suzun,RU,2021-06-11 20:40:54,53.7841,82.3116,45.95,70,96,7.2
240,Ambilobe,MG,2021-06-11 20:40:54,-13.2,49.05,69.49,86,11,1.83
241,Suntar,RU,2021-06-11 20:40:55,62.1444,117.6319,44.8,62,27,4.56
242,Chokurdakh,RU,2021-06-11 20:40:55,70.6333,147.9167,54.37,44,16,11.45
243,Mizdah,LY,2021-06-11 20:40:56,31.4451,12.9801,69.44,50,0,8.14
244,Talara,PE,2021-06-11 20:40:56,-4.5772,-81.2719,77.76,61,0,16.11
245,Vestmannaeyjar,IS,2021-06-11 20:38:30,63.4427,-20.2734,47.39,57,20,26.46
246,Lakatoro,VU,2021-06-11 20:40:57,-16.0999,167.4164,78.96,71,65,14.67
247,College,US,2021-06-11 20:40:57,64.8569,-147.8028,65.59,57,75,6.91
248,Beaufort,MY,2021-06-11 20:40:58,5.3473,115.7455,77.16,93,100,4.14
249,Celestun,MX,2021-06-11 20:37:02,20.8667,-90.4,82.8,73,93,11.36
250,Caravelas,BR,2021-06-11 20:40:58,-17.7125,-39.2481,73.9,81,96,6.44
251,Faanui,PF,2021-06-11 20:40:59,-16.4833,-151.75,74.28,91,100,17.02
252,Port Hardy,CA,2021-06-11 20:40:59,50.6996,-127.4199,55.58,76,90,14.97
253,Northam,GB,2021-06-11 20:41:00,51.0333,-4.2167,63.01,96,73,7.78
254,Kavieng,PG,2021-06-11 20:41:00,-2.5744,150.7967,81.81,80,29,14.56
255,Olafsvik,IS,2021-06-11 20:38:29,64.8945,-23.7142,41.31,57,65,20.04
256,Kenitra,MA,2021-06-11 20:41:01,34.261,-6.5802,68.76,90,0,7.47
257,Ayna,PE,2021-06-11 20:41:02,-12.65,-73.9167,79.3,75,60,3.69
258,Yemelyanovo,RU,2021-06-11 20:41:02,56.1681,92.6767,34.61,93,0,2.24
259,Tautira,PF,2021-06-11 20:41:03,-17.7333,-149.15,78.82,82,100,12.3
260,Hovd,MN,2021-06-11 20:41:03,48.0056,91.6419,53.69,76,17,2.08
261,Margate,GB,2021-06-11 20:41:04,51.3813,1.3862,69.04,78,95,1.99
262,Bahia Blanca,AR,2021-06-11 20:38:44,-38.7196,-62.2724,60.01,54,48,8.7
263,Murray Bridge,AU,2021-06-11 20:41:05,-35.1167,139.2667,55.56,80,38,6.42
264,Portobelo,PA,2021-06-11 20:41:05,9.55,-79.65,85.96,76,68,8.05
265,Carupano,VE,2021-06-11 20:41:06,10.6678,-63.2585,82.85,71,64,12.19
266,Marsa Matruh,EG,2021-06-11 20:41:06,31.3525,27.2453,71.8,83,40,8.05
267,Port Lincoln,AU,2021-06-11 20:41:07,-34.7333,135.8667,51.75,83,87,7.09
268,Namatanai,PG,2021-06-11 20:39:14,-3.6667,152.4333,79.92,80,10,9.62
269,Selfoss,IS,2021-06-11 20:41:07,63.9331,-20.9971,47.28,61,18,20.38
270,Durban,ZA,2021-06-11 20:41:08,-29.8579,31.0292,63.01,92,0,4.0
271,Batemans Bay,AU,2021-06-11 20:41:08,-35.7167,150.1833,52.2,66,71,8.86
272,Opalenica,PL,2021-06-11 20:41:09,52.3089,16.4128,65.91,74,56,0.25
273,Flinders,AU,2021-06-11 20:41:09,-34.5833,150.8552,54.68,65,0,5.99
274,Shingu,JP,2021-06-11 20:41:10,33.7333,135.9833,71.91,90,100,3.18
275,Tual,ID,2021-06-11 20:41:10,-5.6667,132.75,81.61,81,51,17.25
276,Dakar,SN,2021-06-11 20:36:55,14.6937,-17.4441,83.28,78,0,4.61
277,Nizhnevartovsk,RU,2021-06-11 20:41:11,60.9344,76.5531,59.02,63,0,6.71
278,Halifax,CA,2021-06-11 20:37:13,44.6453,-63.5724,63.41,53,91,3.0
279,Mareeba,AU,2021-06-11 20:41:12,-17.0,145.4333,66.92,92,90,2.28
280,Grindavik,IS,2021-06-11 20:41:12,63.8424,-22.4338,44.55,56,40,31.07
281,Tynda,RU,2021-06-11 20:41:13,55.1667,124.7167,53.94,88,44,1.1
282,Hualmay,PE,2021-06-11 20:41:13,-11.0964,-77.6139,67.55,76,20,9.95
283,Meulaboh,ID,2021-06-11 20:41:14,4.1363,96.1285,76.89,87,100,4.38
284,Paralimni,CY,2021-06-11 20:41:14,35.0375,33.9833,72.48,77,0,3.0
285,Ust-Kuyga,RU,2021-06-11 20:41:15,70.0167,135.6,61.48,42,95,7.29
286,La Asuncion,VE,2021-06-11 20:41:15,11.0333,-63.8628,85.73,66,96,18.41
287,Klyuchi,RU,2021-06-11 20:41:15,52.2667,79.1667,47.98,67,35,7.43
288,Madras,IN,2021-06-11 20:38:55,13.0878,80.2785,85.98,78,40,5.01
289,Reforma,MX,2021-06-11 20:41:16,18.1,-91.0167,89.49,53,92,7.58
290,Salalah,OM,2021-06-11 20:37:30,17.0151,54.0924,84.29,89,40,8.05
291,Sorong,ID,2021-06-11 20:37:22,-0.8833,131.25,78.22,88,96,8.72
292,Pitimbu,BR,2021-06-11 20:41:17,-7.4706,-34.8086,79.39,81,16,11.7
293,Anderson,US,2021-06-11 20:40:25,34.5334,-82.6499,88.36,67,40,1.99
294,Coos Bay,US,2021-06-11 20:41:18,43.3665,-124.2179,59.23,90,90,10.36
295,Mount Gambier,AU,2021-06-11 20:41:18,-37.8333,140.7667,40.91,100,18,5.75
296,Harda,IN,2021-06-11 20:41:18,22.3333,77.1,83.34,63,93,13.51
297,Saint-Pierre,RE,2021-06-11 20:41:19,-21.3393,55.4781,73.08,81,90,25.32
298,Sambava,MG,2021-06-11 20:41:19,-14.2667,50.1667,73.81,76,100,8.63
299,North Bend,US,2021-06-11 20:41:20,43.4065,-124.2243,61.92,89,90,10.36
300,Kamiiso,JP,2021-06-11 20:41:21,41.8167,140.65,64.4,81,100,2.35
301,Nizwa,OM,2021-06-11 20:41:21,22.9333,57.5333,87.85,52,6,2.89
302,Haines Junction,CA,2021-06-11 20:41:22,60.7522,-137.5108,71.55,21,69,11.5
303,Tadine,NC,2021-06-11 20:41:22,-21.55,167.8833,73.56,77,100,13.85
304,Klaksvik,FO,2021-06-11 20:37:18,62.2266,-6.589,49.12,87,100,25.61
305,Oranjestad,AW,2021-06-11 20:37:06,12.524,-70.027,87.75,62,20,24.16
306,Funadhoo,MV,2021-06-11 20:41:23,6.15,73.2667,82.42,77,91,16.24
307,Wangqing,CN,2021-06-11 20:41:23,43.3218,129.7634,59.13,94,2,0.74
308,Porto Novo,BJ,2021-06-11 20:41:24,6.4965,2.6036,80.42,79,99,8.57
309,Camara De Lobos,PT,2021-06-11 20:41:24,32.6333,-16.9667,75.83,38,20,16.11
310,Sidhpura,IN,2021-06-11 20:41:25,27.6333,78.8833,91.2,48,41,8.05
311,Conde,BR,2021-06-11 20:41:22,-7.2597,-34.9075,78.26,89,20,12.66
312,Hearst,CA,2021-06-11 20:41:26,49.6835,-83.6665,70.05,29,17,8.63
313,Mata,PT,2021-06-11 20:41:26,40.683,-7.4592,65.93,71,97,7.31
314,Ouadda,CF,2021-06-11 20:41:27,8.0777,22.4007,74.62,58,100,0.78
315,Lima,PE,2021-06-11 20:38:55,-12.0432,-77.0282,65.89,84,90,10.36
316,Walvis Bay,NA,2021-06-11 20:41:28,-22.9575,14.5053,57.09,94,4,5.75
317,Nandi,IN,2021-06-11 20:41:28,13.3855,77.6984,71.2,74,98,12.68
318,Gayny,RU,2021-06-11 20:41:29,60.3071,54.3241,53.2,66,18,3.47
319,Alekseyevskoye,RU,2021-06-11 20:41:30,55.3071,50.1135,65.08,95,52,9.35
320,Pindushi,RU,2021-06-11 20:41:31,62.9152,34.58,56.93,61,0,4.05
321,Soligalich,RU,2021-06-11 20:41:32,59.0778,42.2864,54.45,68,18,5.41
322,Zheleznodorozhnyy,RU,2021-06-11 20:41:33,55.7503,38.0042,61.32,98,75,5.41
323,Magadan,RU,2021-06-11 20:41:33,59.5667,150.8,50.58,55,0,1.66
324,Portland,US,2021-06-11 20:38:57,45.5234,-122.6762,59.74,88,90,1.01
325,Eureka,US,2021-06-11 20:41:34,40.8021,-124.1637,61.12,45,100,8.46
326,Straumen,NO,2021-06-11 20:41:35,63.8709,11.2999,58.5,97,100,5.53
327,Port Macquarie,AU,2021-06-11 20:41:13,-31.4333,152.9167,42.89,81,35,5.39
328,Jonkoping,SE,2021-06-11 20:41:35,57.7814,14.1562,63.9,88,20,9.22
329,Timra,SE,2021-06-11 20:41:36,62.487,17.3257,64.11,87,75,11.5
330,Sainte-Suzanne,RE,2021-06-11 20:41:36,-20.9061,55.6089,73.62,83,90,17.27
331,Antsohihy,MG,2021-06-11 20:41:36,-14.8796,47.9875,71.11,68,29,6.64
332,Ukiah,US,2021-06-11 20:41:37,39.1502,-123.2078,78.53,36,20,6.91
333,Palafrugell,ES,2021-06-11 20:41:37,41.9174,3.1631,74.41,20,54,6.73
334,Benguela,AO,2021-06-11 20:41:38,-12.5763,13.4055,75.52,73,17,3.02
335,Le Pont-De-Claix,FR,2021-06-11 20:41:38,45.1244,5.7064,71.46,93,11,2.33
336,Kaseda,JP,2021-06-11 20:41:39,31.4167,130.3167,71.85,96,100,9.1
337,Volot,RU,2021-06-11 20:41:39,57.9278,30.7025,54.66,92,100,3.83
338,Yanam,IN,2021-06-11 20:41:40,16.7333,82.2167,77.4,85,100,9.26
339,Bazarnyy Syzgan,RU,2021-06-11 20:41:40,53.7512,46.7535,59.7,93,99,3.96
340,Sao Jose Da Coroa Grande,BR,2021-06-11 20:41:40,-8.8978,-35.1478,76.1,80,16,8.52
341,Teya,RU,2021-06-11 20:41:41,60.3778,92.6267,37.56,87,25,4.59
342,Havoysund,NO,2021-06-11 20:41:41,70.9963,24.6622,58.08,98,100,4.43
343,Santa Rita,BR,2021-06-11 20:41:42,-7.1139,-34.9781,79.47,89,20,12.66
344,Ostrovnoy,RU,2021-06-11 20:41:43,68.0531,39.5131,63.25,49,8,19.53
345,Harrisonville,US,2021-06-11 20:41:43,38.6533,-94.3488,90.91,64,75,4.61
346,Kieta,PG,2021-06-11 20:36:46,-6.2167,155.6333,80.89,81,18,4.88
347,Yenagoa,NG,2021-06-11 20:41:44,4.9247,6.2642,73.9,97,98,2.95
348,Luderitz,NA,2021-06-11 20:41:44,-26.6481,15.1594,64.89,51,100,4.72
349,San Quintin,MX,2021-06-11 20:36:45,30.4833,-115.95,68.9,61,0,19.22
350,Thompson,CA,2021-06-11 20:41:28,55.7435,-97.8558,69.96,43,75,13.8
351,Fortuna,US,2021-06-11 20:41:45,40.5982,-124.1573,60.85,91,100,8.14
352,Fuengirola,ES,2021-06-11 20:41:46,36.54,-4.6247,74.08,68,0,5.75
353,Bathsheba,BB,2021-06-11 20:41:46,13.2167,-59.5167,86.61,58,20,14.97
354,Mahebourg,MU,2021-06-11 20:41:47,-20.4081,57.7,75.49,73,75,13.8
355,Pangkalanbuun,ID,2021-06-11 20:41:19,-2.6833,111.6167,72.25,99,38,0.98
356,Kununurra,AU,2021-06-11 20:41:47,-15.7667,128.7333,49.98,81,69,0.0
357,Taltal,CL,2021-06-11 20:41:48,-25.4,-70.4833,65.35,68,23,3.38
358,Rastolita,RO,2021-06-11 20:41:48,46.9726,24.9929,56.55,91,100,4.32
359,Akhtanizovskaya,RU,2021-06-11 20:41:48,45.32,37.1,60.49,82,0,13.0
360,Rancho Cucamonga,US,2021-06-11 20:37:33,34.1064,-117.5931,94.73,25,1,5.01
361,Souillac,MU,2021-06-11 20:41:49,-20.5167,57.5167,75.58,73,75,13.8
362,Henties Bay,NA,2021-06-11 20:41:50,-22.116,14.2845,56.86,85,4,3.96
363,Buraydah,SA,2021-06-11 20:40:23,26.326,43.975,90.05,18,0,12.59
364,Avera,US,2021-06-11 20:37:50,33.194,-82.5271,90.91,58,82,12.12
365,Arroyo,ES,2021-06-11 20:41:50,41.6096,-4.7969,68.04,55,0,9.22
366,Gao,ML,2021-06-11 20:41:51,16.6362,1.637,94.51,17,5,5.21
367,Cartagena,CO,2021-06-11 20:41:52,10.3997,-75.5144,87.42,74,40,11.5
368,Port-Gentil,GA,2021-06-11 20:41:52,-0.7193,8.7815,78.76,89,90,10.36
369,Santiago Del Estero,AR,2021-06-11 20:41:53,-27.7951,-64.2615,69.46,48,65,5.01
370,Amapa,BR,2021-06-11 20:38:32,1.0,-52.0,72.57,98,100,2.1
371,Iwanai,JP,2021-06-11 20:39:15,42.9744,140.5089,64.89,77,100,6.26
372,Isangel,VU,2021-06-11 20:41:53,-19.55,169.2667,75.47,69,84,11.86
373,Tandil,AR,2021-06-11 20:41:54,-37.3217,-59.1332,50.16,61,100,11.1
374,Bansang,GM,2021-06-11 20:41:54,13.4333,-14.65,90.25,51,97,4.16
375,Shestakovo,RU,2021-06-11 20:41:55,56.4915,103.96,39.81,65,22,3.33
376,Najran,SA,2021-06-11 20:37:24,17.4924,44.1277,84.85,14,100,2.01
377,Dzaoudzi,YT,2021-06-11 20:41:56,-12.7887,45.2699,76.89,69,20,13.8
378,Lumut,MY,2021-06-11 20:41:56,4.2323,100.6298,78.82,89,20,0.0
379,Cayon,KN,2021-06-11 20:41:57,17.35,-62.7333,82.06,88,75,17.27
380,Boyolangu,ID,2021-06-11 20:41:57,-8.1181,111.8935,74.3,89,48,2.24
381,Marienburg,PL,2021-06-11 20:41:58,54.0359,19.0266,64.06,87,85,2.08
382,Berlevag,NO,2021-06-11 20:37:17,70.8578,29.0864,62.55,72,75,21.85
383,Aswan,EG,2021-06-11 20:41:58,24.0934,32.907,93.18,14,0,9.84
384,Formosa,AR,2021-06-11 20:37:13,-26.1775,-58.1781,69.78,60,0,6.91
385,Hanford,US,2021-06-11 20:39:35,36.3275,-119.6457,83.28,22,1,9.22
386,Mvuma,ZW,2021-06-11 20:41:59,-19.2792,30.5283,47.43,73,0,7.0
387,Porto Seguro,BR,2021-06-11 20:42:00,-16.4497,-39.0647,79.32,73,20,9.22
388,Biloela,AU,2021-06-11 20:42:00,-24.4167,150.5,44.37,45,0,3.4
389,Odoyev,RU,2021-06-11 20:42:01,53.9393,36.6864,58.51,87,97,5.03
390,Xihe,CN,2021-06-11 20:42:02,31.6864,113.4659,75.76,91,56,3.76
391,Berbera,SO,2021-06-11 20:42:02,10.4396,45.0143,92.44,46,100,7.7
392,Paka,MY,2021-06-11 20:42:02,4.6374,103.4368,75.13,100,100,0.0
393,Machico,PT,2021-06-11 20:42:03,32.7,-16.7667,75.83,38,20,16.11
394,Shelburne,CA,2021-06-11 20:42:03,44.0787,-80.2041,77.79,72,88,6.44
395,Imeni Vorovskogo,RU,2021-06-11 20:42:04,55.7233,38.3414,61.38,99,79,5.7
396,Pokosnoye,RU,2021-06-11 20:42:04,55.5258,101.0536,38.97,73,4,2.01
397,Bandarbeyla,SO,2021-06-11 20:42:05,9.4942,50.8122,78.73,79,99,30.42
398,Fare,PF,2021-06-11 20:42:05,-16.7,-151.0167,74.41,93,100,18.54
399,Atar,MR,2021-06-11 20:42:06,20.5169,-13.0499,99.75,15,31,7.7
400,Calvinia,ZA,2021-06-11 20:42:06,-31.4707,19.776,56.17,28,77,4.74
401,New Norfolk,AU,2021-06-11 20:42:06,-42.7826,147.0587,55.65,87,87,3.27
402,Saint Anthony,US,2021-06-11 20:42:07,45.0205,-93.218,90.93,43,1,1.99
403,Waiouru,NZ,2021-06-11 20:42:07,-39.4833,175.6667,46.67,90,85,1.72
404,Yuxia,CN,2021-06-11 20:42:08,34.0615,108.6291,84.81,63,98,5.66
405,Yeppoon,AU,2021-06-11 20:42:08,-23.1333,150.7333,37.18,49,12,3.51
406,Poronaysk,RU,2021-06-11 20:42:09,49.2167,143.1167,62.33,73,100,17.94
407,Loreto,MX,2021-06-11 20:42:09,22.2667,-101.9667,81.16,21,4,15.48
408,Aztec,US,2021-06-11 20:42:10,36.8222,-107.9929,90.82,7,0,9.71
409,Nhulunbuy,AU,2021-06-11 20:42:10,-12.2333,136.7667,74.01,88,100,4.61
410,Mandali,IQ,2021-06-11 20:42:11,33.7499,45.5541,85.24,18,0,12.88
411,Manicore,BR,2021-06-11 20:42:11,-5.8092,-61.3003,85.42,60,77,2.64
412,Orel-Izumrud,RU,2021-06-11 20:42:12,43.4583,39.9244,63.55,93,3,4.0
413,Mongo,TD,2021-06-11 20:42:12,12.1844,18.693,96.48,23,33,4.34
414,Killybegs,IE,2021-06-11 20:42:12,54.6333,-8.45,53.46,74,96,12.28
415,San Angelo,US,2021-06-11 20:41:27,31.4638,-100.437,102.63,30,1,11.01
416,Pokaran,IN,2021-06-11 20:42:13,26.9167,71.9167,85.37,59,0,23.78
417,Gravdal,NO,2021-06-11 20:42:14,68.1214,13.5031,51.69,100,75,11.5
418,Half Moon Bay,US,2021-06-11 20:38:20,37.4636,-122.4286,79.9,43,1,9.22
419,Houma,US,2021-06-11 20:42:14,29.5958,-90.7195,93.0,64,40,9.22
420,Marietta,US,2021-06-11 20:39:58,33.9526,-84.5499,83.48,83,90,8.05
421,Nakamura,JP,2021-06-11 20:42:15,32.9833,132.9333,70.23,96,100,3.71
422,Narasannapeta,IN,2021-06-11 20:42:15,18.4167,84.05,80.82,78,93,7.94
423,Rabo De Peixe,PT,2021-06-11 20:41:25,37.8,-25.5833,67.51,83,40,4.61
424,Paita,PE,2021-06-11 20:42:16,-5.0892,-81.1144,77.56,71,8,17.29
425,Lhokseumawe,ID,2021-06-11 20:42:12,5.1801,97.1507,77.59,87,100,3.44
426,Clyde River,CA,2021-06-11 20:42:17,70.4692,-68.5914,41.23,70,20,23.02
427,Veinticinco De Mayo,AR,2021-06-11 20:42:17,-35.4323,-60.1727,53.24,58,88,7.87
428,Tutoia,BR,2021-06-11 20:42:18,-2.7619,-42.2744,85.98,85,77,5.84
429,Dyersburg,US,2021-06-11 20:42:18,36.0345,-89.3856,90.99,74,20,4.61
430,Zhuanghe,CN,2021-06-11 20:42:19,39.7008,122.9911,64.04,93,100,2.71
431,Buchanan,LR,2021-06-11 20:37:43,5.8808,-10.0467,82.36,78,100,3.49
432,Lock Haven,US,2021-06-11 20:42:19,41.137,-77.4469,68.7,91,100,3.98
433,San Borja,BO,2021-06-11 20:42:20,-14.8167,-66.85,60.89,98,100,5.44
434,Capreol,CA,2021-06-11 20:42:20,46.706,-80.9225,62.91,78,90,4.61
435,Haysville,US,2021-06-11 20:42:21,37.5645,-97.3523,95.79,60,75,8.05
436,Copiapo,CL,2021-06-11 20:42:21,-27.3667,-70.3333,56.89,15,0,4.81
437,Samarinda,ID,2021-06-11 20:42:21,-0.5,117.15,72.93,99,83,1.28
438,Muravlenko,RU,2021-06-11 20:42:22,63.7898,74.523,50.79,82,92,10.74
439,Severo-Yeniseyskiy,RU,2021-06-11 20:42:22,60.3725,93.0408,34.97,86,21,5.08
440,Maragogi,BR,2021-06-11 20:42:23,-9.0122,-35.2225,75.65,80,16,8.03
441,Vao,NC,2021-06-11 20:38:13,-22.6667,167.4833,72.73,74,100,14.43
442,Sarmanovo,RU,2021-06-11 20:42:23,55.2553,52.5891,61.48,96,91,10.89
443,Waipawa,NZ,2021-06-11 20:42:24,-41.4122,175.5153,51.03,87,59,2.21
444,Rio Tercero,AR,2021-06-11 20:42:24,-32.173,-64.1141,62.47,44,0,6.46
445,Brandon,US,2021-06-11 20:40:01,27.9378,-82.2859,94.32,61,40,3.0
446,Bintulu,MY,2021-06-11 20:42:25,3.1667,113.0333,75.61,94,20,3.0
447,Akcaabat,TR,2021-06-11 20:42:25,41.0212,39.5715,67.87,77,40,4.61
448,Taksimo,RU,2021-06-11 20:42:26,56.3444,114.8794,50.31,89,100,3.98
449,Gat,IL,2021-06-11 20:42:26,31.61,34.7642,74.8,61,0,3.85
450,Barguzin,RU,2021-06-11 20:42:27,53.6167,109.6167,49.62,92,91,5.3
451,Papar,MY,2021-06-11 20:42:27,5.7333,115.9333,75.2,82,100,4.41
452,Aragarcas,BR,2021-06-11 20:42:27,-15.8975,-52.2508,81.25,69,0,3.44
453,Awbari,LY,2021-06-11 20:42:28,26.5921,12.7805,81.68,22,0,8.55
454,Vila Franca Do Campo,PT,2021-06-11 20:42:28,37.7167,-25.4333,68.41,81,15,1.19
455,Kalmunai,LK,2021-06-11 20:42:29,7.4167,81.8167,79.34,74,87,6.8
456,Qaqortoq,GL,2021-06-11 20:42:29,60.7167,-46.0333,50.5,84,100,2.37
457,Porteirinha,BR,2021-06-11 20:42:30,-15.7433,-43.0283,77.29,38,83,2.08
458,Rio Gallegos,AR,2021-06-11 20:42:30,-51.6226,-69.2181,44.65,65,40,18.41
459,Hibbing,US,2021-06-11 20:42:31,47.4272,-92.9377,80.1,82,75,5.75
460,Jyvaskyla,FI,2021-06-11 20:42:31,62.2415,25.7209,66.54,48,0,5.75
461,Weihe,CN,2021-06-11 20:42:32,32.9952,105.3247,61.05,97,97,1.48
462,Jedrzejow,PL,2021-06-11 20:42:32,50.6394,20.3045,61.63,85,2,3.83
463,Dubti,ET,2021-06-11 20:42:33,11.7361,41.0853,96.67,12,89,12.37
464,Pangnirtung,CA,2021-06-11 20:42:33,66.1451,-65.7125,39.2,81,20,17.27
465,Apac,UG,2021-06-11 20:42:33,1.9756,32.5386,68.25,74,66,4.83
466,Pareora,NZ,2021-06-11 20:42:34,-44.4871,171.2132,45.18,97,18,6.91
467,Yershov,RU,2021-06-11 20:42:34,51.3513,48.2766,60.19,90,100,0.49
468,Nelson Bay,AU,2021-06-11 20:42:35,-32.7167,152.15,49.95,90,50,12.26
469,Ust-Maya,RU,2021-06-11 20:42:35,60.4167,134.5333,57.69,59,21,3.62
470,Tefe,BR,2021-06-11 20:42:36,-3.3542,-64.7114,87.91,62,20,3.44
471,Castel San Giovanni,IT,2021-06-11 20:42:36,45.0583,9.4335,74.34,78,28,4.18
472,Tuskegee,US,2021-06-11 20:42:36,32.424,-85.6916,91.22,57,57,10.38
473,Zhangzhou,CN,2021-06-11 20:41:04,24.5133,117.6556,82.33,94,100,1.14
474,Guasdualito,VE,2021-06-11 20:42:37,7.2424,-70.7324,81.57,76,54,4.43
475,Excelsior Springs,US,2021-06-11 20:42:38,39.3392,-94.2261,89.47,61,75,5.75
476,Puerto Carreno,CO,2021-06-11 20:38:35,6.189,-67.4859,85.57,62,60,3.83
477,Verkhnetulomskiy,RU,2021-06-11 20:42:38,68.6073,31.7962,71.73,52,4,7.94
478,Lodja,CD,2021-06-11 20:38:09,-3.4833,23.4333,79.23,42,87,1.16
479,Kubachi,RU,2021-06-11 20:42:39,42.086,47.6034,49.03,87,82,4.14
480,Moose Factory,CA,2021-06-11 20:37:39,51.2585,-80.6094,57.2,47,1,11.5
481,Sobolevo,RU,2021-06-11 20:42:39,54.4299,31.8996,55.02,92,45,3.8
482,Husavik,IS,2021-06-11 20:42:40,66.0449,-17.3389,39.11,98,100,28.05
483,Machali,CL,2021-06-11 20:42:40,-34.1833,-70.6667,65.48,30,0,8.05
484,Nishihara,JP,2021-06-11 20:42:41,26.1842,127.7558,78.85,94,40,3.44
485,Coihaique,CL,2021-06-11 20:42:41,-45.5752,-72.0662,52.41,100,90,9.22
486,Batagay,RU,2021-06-11 20:42:41,67.6333,134.6333,58.26,51,80,6.85
487,Nuristan,AF,2021-06-11 20:42:42,35.3,70.8333,43.79,40,0,13.29
488,Odienne,CI,2021-06-11 20:42:43,9.51,-7.5692,75.85,78,75,5.03
489,Tanabe,JP,2021-06-11 20:42:43,33.7333,135.3667,71.92,75,95,6.49
490,Bataipora,BR,2021-06-11 20:42:44,-22.2953,-53.2711,66.78,77,100,4.54
491,Middletown,US,2021-06-11 20:40:15,39.5151,-84.3983,88.02,72,40,9.22
492,Lincoln,US,2021-06-11 20:41:24,40.8,-96.667,81.39,78,75,1.01
493,Yerbogachen,RU,2021-06-11 20:42:45,61.2767,108.0108,40.06,74,6,4.92
494,Cody,US,2021-06-11 20:42:45,44.5263,-109.0565,73.9,13,1,6.91
495,Lokosovo,RU,2021-06-11 20:42:45,61.1333,74.8167,54.54,80,100,8.66
496,Bernay,FR,2021-06-11 20:42:46,49.1667,0.6667,64.31,85,63,4.0
497,Kiunga,PG,2021-06-11 20:42:46,-6.1219,141.2906,73.81,99,94,1.25
498,Bangolo,CI,2021-06-11 20:42:47,7.0069,-7.475,72.32,93,67,2.42
499,Vammala,FI,2021-06-11 20:42:47,61.3333,22.9,65.1,80,1,5.48
500,Sumbe,AO,2021-06-11 20:42:48,-11.2061,13.8437,74.8,84,1,5.93
501,Gimli,CA,2021-06-11 20:42:48,50.6336,-96.9907,72.05,88,89,18.41
502,Rock Sound,BS,2021-06-11 20:42:48,24.9,-76.2,79.77,73,92,7.85
503,Price,US,2021-06-11 20:42:49,39.5994,-110.8107,79.72,8,1,9.22
504,Dunedin,NZ,2021-06-11 20:42:50,-45.8742,170.5036,43.81,93,0,4.43
505,Vaitape,PF,2021-06-11 20:42:50,-16.5167,-151.75,74.25,91,100,17.2
506,Pangody,RU,2021-06-11 20:42:50,65.85,74.4859,50.41,75,100,8.63
507,Praia Da Vitoria,PT,2021-06-11 20:42:51,38.7333,-27.0667,70.75,88,75,0.63
508,Sakakah,SA,2021-06-11 20:42:52,29.9697,40.2064,87.37,19,0,10.94
509,Mogocha,RU,2021-06-11 20:42:52,53.7333,119.7667,56.1,70,58,1.72
510,Along,IN,2021-06-11 20:42:52,28.1667,94.7667,74.14,97,100,1.86
511,Harrison,US,2021-06-11 20:41:49,30.4091,-89.0436,92.14,64,20,10.36
512,Gizo,SB,2021-06-11 20:42:53,-8.103,156.8419,81.57,76,45,5.57
513,Oktyabrskiy,RU,2021-06-11 20:42:54,54.4815,53.471,56.8,94,100,5.95
514,Bronnoysund,NO,2021-06-11 20:42:54,65.4625,12.1997,55.92,94,75,6.91
515,Manzhouli,CN,2021-06-11 20:42:54,49.6,117.4333,62.42,49,100,4.85
516,Paciran,ID,2021-06-11 20:42:55,-6.8767,112.3761,77.45,87,10,7.72
517,Nantucket,US,2021-06-11 20:42:56,41.2835,-70.0995,68.25,59,1,18.41
518,Asau,RO,2021-06-11 20:42:56,46.4333,26.4,60.4,97,96,3.2
519,Verkhnevilyuysk,RU,2021-06-11 20:42:56,63.4453,120.3167,45.41,84,0,6.17
520,Ibra,OM,2021-06-11 20:42:57,22.6906,58.5334,84.06,63,0,3.76
521,Batagay-Alyta,RU,2021-06-11 20:42:57,67.8006,130.4114,57.83,45,100,10.71
522,Fuerte Olimpo,PY,2021-06-11 20:42:58,-21.0415,-57.8738,70.23,55,90,4.99
523,Arrifes,PT,2021-06-11 20:42:58,37.7667,-25.7,66.45,77,40,4.61
524,Manbij,SY,2021-06-11 20:42:59,36.5281,37.9549,70.57,77,0,20.13
525,Le Passage,FR,2021-06-11 20:42:59,44.2014,0.6028,73.54,64,0,8.05
526,Salinopolis,BR,2021-06-11 20:43:00,-0.6136,-47.3561,76.5,90,100,7.34
527,Atherton,GB,2021-06-11 20:43:01,53.5237,-2.4935,60.94,73,94,1.99
528,Vyazma,RU,2021-06-11 20:43:01,55.2104,34.2951,55.9,98,98,4.54
529,Aklavik,CA,2021-06-11 20:43:02,68.2191,-135.0107,63.32,87,75,4.61
530,Diffa,NE,2021-06-11 20:43:02,13.3154,12.6113,91.02,34,35,6.8
531,Raudeberg,NO,2021-06-11 20:43:02,61.9875,5.1352,53.2,95,100,11.65
532,Moussoro,TD,2021-06-11 20:43:03,13.6408,16.4901,98.51,20,96,6.49
533,Cananeia,BR,2021-06-11 20:43:04,-25.0147,-47.9267,67.06,82,97,4.34
534,Nemuro,JP,2021-06-11 20:39:18,43.3236,145.575,53.42,93,100,16.69
535,Basco,PH,2021-06-11 20:43:04,20.4487,121.9702,84.72,78,100,14.32
536,Sabang,ID,2021-06-11 20:43:05,5.8933,95.3214,83.23,75,98,17.83
537,Loukhi,RU,2021-06-11 20:43:05,66.0764,33.0381,60.48,45,1,6.55
538,Qasigiannguit,GL,2021-06-11 20:43:05,68.8193,-51.1922,39.45,79,92,4.54
539,Cap Malheureux,MU,2021-06-11 20:43:06,-19.9842,57.6142,75.69,70,97,10.0
540,Liaozhong,CN,2021-06-11 20:43:07,41.5061,122.7242,68.49,86,97,7.72
541,Sayyan,YE,2021-06-11 20:43:07,15.1718,44.3244,69.42,21,100,4.68
542,Komatipoort,ZA,2021-06-11 20:43:07,-25.4332,31.9548,55.06,92,0,3.15
543,Mildura,AU,2021-06-11 20:43:08,-34.2,142.15,50.07,100,90,5.75
544,Puerto Madryn,AR,2021-06-11 20:43:08,-42.7692,-65.0385,61.32,56,85,8.52
545,Arlit,NE,2021-06-11 20:43:09,18.7369,7.3853,94.41,10,0,10.58
546,Jalu,LY,2021-06-11 20:43:09,29.0331,21.5482,76.62,39,0,14.88
547,Ishigaki,JP,2021-06-11 20:39:03,24.3448,124.1572,82.74,82,78,14.12
548,Qinhuangdao,CN,2021-06-11 20:43:10,39.9317,119.5883,69.22,64,97,3.18
549,Rawson,AR,2021-06-11 20:43:10,-43.3002,-65.1023,59.07,58,94,11.03
550,Merauke,ID,2021-06-11 20:43:11,-8.4667,140.3333,77.9,89,96,12.41
