City_ID,City,Country,Date,Lat,Lng,Max Temp,Humidity,Cloudiness,Wind Speed
0,Hermanus,ZA,2021-06-07 04:46:24,-34.4187,19.2345,58.8,49,3,12.66
1,Parana,AR,2021-06-07 04:46:24,-31.732,-60.5238,49.55,79,6,7.85
2,Chumikan,RU,2021-06-07 04:46:25,54.7183,135.315,43.88,80,59,8.77
3,Albany,US,2021-06-07 04:45:09,42.6001,-73.9662,72.01,80,13,3.65
4,Aklavik,CA,2021-06-07 04:42:16,68.2191,-135.0107,45.32,46,10,9.28
5,Muros,ES,2021-06-07 04:46:25,42.7762,-9.0603,59.23,89,77,7.7
6,Lompoc,US,2021-06-07 04:46:26,34.6391,-120.4579,59.13,87,90,6.24
7,Sarai Alamgir,PK,2021-06-07 04:46:26,32.9012,73.7559,93.18,22,0,2.62
8,Busselton,AU,2021-06-07 04:46:27,-33.65,115.3333,61.05,56,60,9.15
9,Souillac,MU,2021-06-07 04:46:27,-20.5167,57.5167,77.36,78,75,18.01
10,Sitka,US,2021-06-07 04:46:28,57.0531,-135.33,53.49,66,75,4.61
11,Victoria,HK,2021-06-07 04:41:51,22.2855,114.1577,89.96,73,56,3.0
12,Guerrero Negro,MX,2021-06-07 04:46:28,27.9769,-114.0611,62.22,79,93,13.96
13,Lorengau,PG,2021-06-07 04:46:28,-2.0226,147.2712,83.07,72,40,0.67
14,Harper,LR,2021-06-07 04:46:29,4.375,-7.7169,78.51,85,99,6.69
15,Olga,RU,2021-06-07 04:46:29,43.7444,135.2892,71.76,48,12,8.5
16,Namibe,AO,2021-06-07 04:46:30,-15.1961,12.1522,74.7,42,4,8.1
17,Ilulissat,GL,2021-06-07 04:46:30,69.2167,-51.1,37.42,81,0,0.0
18,Barrow,US,2021-06-07 04:45:05,71.2906,-156.7887,32.02,86,90,13.8
19,Santa Catalina,PH,2021-06-07 04:46:31,9.3337,122.8637,85.98,66,96,6.29
20,Cidreira,BR,2021-06-07 04:46:31,-30.1811,-50.2056,62.13,78,82,12.8
21,Brookhaven,US,2021-06-07 04:46:32,31.5791,-90.4407,71.26,98,43,8.86
22,Yellowknife,CA,2021-06-07 04:46:32,62.456,-114.3525,46.92,71,75,3.0
23,Mataura,NZ,2021-06-07 04:46:33,-46.1927,168.8643,49.48,87,0,2.73
24,Rikitea,PF,2021-06-07 04:46:33,-23.1203,-134.9692,76.44,86,100,15.99
25,Avarua,CK,2021-06-07 04:44:23,-21.2078,-159.775,71.65,78,93,2.3
26,Marawi,PH,2021-06-07 04:46:34,7.9986,124.2928,81.41,62,59,4.32
27,San Quintin,MX,2021-06-07 04:46:34,30.4833,-115.95,67.44,79,33,6.15
28,Kapaa,US,2021-06-07 04:46:35,22.0752,-159.319,84.18,71,40,1.99
29,Manuk Mangkaw,PH,2021-06-07 04:46:35,4.8,119.85,82.96,74,97,6.13
30,Norman Wells,CA,2021-06-07 04:46:36,65.282,-126.8329,50.04,76,75,5.75
31,Schwerin,DE,2021-06-07 04:46:36,53.6294,11.4132,60.66,92,65,1.99
32,Shimoda,JP,2021-06-07 04:46:36,34.6667,138.95,73.76,79,100,4.43
33,Price,US,2021-06-07 04:46:37,39.5994,-110.8107,81.66,12,1,4.61
34,Los Andes,CL,2021-06-07 04:43:20,-32.8337,-70.5983,54.57,65,100,0.89
35,Dikson,RU,2021-06-07 04:46:37,73.5069,80.5464,30.18,91,100,12.39
36,Havelock,US,2021-06-07 04:46:38,34.8791,-76.9013,77.95,92,1,1.99
37,Carnarvon,AU,2021-06-07 04:46:39,-24.8667,113.6333,77.07,47,100,10.36
38,Georgetown,MY,2021-06-07 04:45:09,5.4112,100.3354,88.9,69,20,5.01
39,Provideniya,RU,2021-06-07 04:46:39,64.3833,-173.3,41.11,65,75,8.95
40,Nome,US,2021-06-07 04:46:40,64.5011,-165.4064,35.67,80,90,9.22
41,Khatanga,RU,2021-06-07 04:46:40,71.9667,102.5,38.44,62,97,11.92
42,Egvekinot,RU,2021-06-07 04:46:40,66.3167,-179.1667,42.13,51,5,1.12
43,Port Alfred,ZA,2021-06-07 04:46:41,-33.5906,26.891,61.63,37,0,9.15
44,Richmond,US,2021-06-07 04:45:02,37.5538,-77.4603,78.01,85,40,4.72
45,Tuktoyaktuk,CA,2021-06-07 04:46:41,69.4541,-133.0374,35.6,80,40,12.66
46,Mahebourg,MU,2021-06-07 04:44:25,-20.4081,57.7,77.25,78,75,9.22
47,Ambon,ID,2021-06-07 04:46:42,-3.6954,128.1814,84.34,74,40,11.54
48,Shache,CN,2021-06-07 04:46:42,38.4167,77.2406,89.98,13,99,3.53
49,Punta Arenas,CL,2021-06-07 04:44:34,-53.15,-70.9167,35.71,87,0,9.48
50,Bestobe,KZ,2021-06-07 04:46:43,52.4994,73.0975,73.53,27,0,4.88
51,Tairua,NZ,2021-06-07 04:46:43,-37.0167,175.85,60.1,91,100,20.94
52,La Tuque,CA,2021-06-07 04:46:44,47.4334,-72.7824,70.05,88,86,3.44
53,Ushuaia,AR,2021-06-07 04:45:08,-54.8,-68.3,44.26,61,40,0.0
54,New Norfolk,AU,2021-06-07 04:46:45,-42.7826,147.0587,63.91,48,100,5.01
55,Hobart,AU,2021-06-07 04:44:12,-42.8794,147.3294,64.26,45,75,10.0
56,Pochinki,RU,2021-06-07 04:46:45,54.6988,44.8668,64.18,77,43,4.63
57,San Cristobal,VE,2021-06-07 04:46:45,7.7669,-72.225,65.39,98,100,3.4
58,Qaanaaq,GL,2021-06-07 04:46:46,77.484,-69.3632,38.16,72,36,5.99
59,Bengkulu,ID,2021-06-07 04:46:46,-3.8004,102.2655,83.79,66,62,5.3
60,Rawson,AR,2021-06-07 04:46:47,-43.3002,-65.1023,46.45,61,55,14.83
61,Diamantino,BR,2021-06-07 04:46:47,-14.4086,-56.4461,71.55,62,84,5.12
62,Talnakh,RU,2021-06-07 04:46:48,69.4865,88.3972,32.81,94,100,5.64
63,Vaini,TO,2021-06-07 04:46:48,-21.2,-175.2,71.76,100,90,5.75
64,Ponta Do Sol,PT,2021-06-07 04:46:48,32.6667,-17.1,66.0,78,11,4.29
65,Sussex,US,2021-06-07 04:44:21,41.1834,-74.6663,79.07,75,1,0.0
66,Navirai,BR,2021-06-07 04:46:49,-23.065,-54.1906,68.05,61,100,3.4
67,Paita,PE,2021-06-07 04:46:49,-5.0892,-81.1144,68.31,81,99,9.35
68,Port Elizabeth,ZA,2021-06-07 04:46:50,-33.918,25.5701,55.69,41,0,3.44
69,Zmeinogorsk,RU,2021-06-07 04:46:50,51.1567,82.195,68.63,50,0,5.5
70,Mabaruma,GY,2021-06-07 04:46:51,8.2,-59.7833,72.72,99,84,1.97
71,Ostersund,SE,2021-06-07 04:46:51,63.1792,14.6357,54.61,100,0,10.36
72,Vanimo,PG,2021-06-07 04:46:52,-2.6741,141.3028,81.37,85,88,5.79
73,Jamestown,US,2021-06-07 04:46:52,42.097,-79.2353,70.34,79,1,9.22
74,Arkhangelskoye,RU,2021-06-07 04:46:53,55.8549,35.3287,60.58,85,98,4.56
75,Colmenar Viejo,ES,2021-06-07 04:46:53,40.6591,-3.7676,62.15,61,26,3.74
76,Puerto Ayora,EC,2021-06-07 04:46:53,-0.7393,-90.3518,71.55,98,30,1.99
77,Arraial Do Cabo,BR,2021-06-07 04:46:54,-22.9661,-42.0278,71.76,86,18,5.61
78,Meulaboh,ID,2021-06-07 04:45:37,4.1363,96.1285,84.25,64,100,6.82
79,Warwick,US,2021-06-07 04:42:20,41.7001,-71.4162,76.68,71,40,9.22
80,Tasiilaq,GL,2021-06-07 04:46:55,65.6145,-37.6368,42.96,89,98,2.57
81,Praxedis Guerrero,MX,2021-06-07 04:46:55,31.3667,-106.0167,92.79,13,1,25.7
82,Bambous Virieux,MU,2021-06-07 04:46:55,-20.3428,57.7575,77.22,78,75,19.51
83,Geraldton,AU,2021-06-07 04:46:56,-28.7667,114.6,66.61,55,100,16.42
84,Naze,JP,2021-06-07 04:46:56,28.3667,129.4833,77.92,91,100,9.82
85,Camarzana,RO,2021-06-07 04:46:57,48.0,23.3167,58.53,83,4,3.71
86,Baculin,PH,2021-06-07 04:46:57,7.4525,126.5842,81.75,84,89,3.47
87,Nushki,PK,2021-06-07 04:44:36,29.5542,66.0215,97.68,18,0,8.86
88,Fort Dodge,US,2021-06-07 04:44:30,42.4975,-94.168,75.4,73,1,6.91
89,Moerai,PF,2021-06-07 04:46:58,-22.4333,-151.3333,73.04,64,10,12.39
90,Salinas,US,2021-06-07 04:44:56,36.6777,-121.6555,58.41,66,1,10.36
91,Butaritari,KI,2021-06-07 04:46:59,3.0707,172.7902,82.4,73,27,7.92
92,Camacha,PT,2021-06-07 04:46:59,33.0833,-16.3333,62.53,72,40,11.5
93,Khasan,RU,2021-06-07 04:46:59,42.4308,130.6434,63.01,72,31,6.53
94,Kavieng,PG,2021-06-07 04:47:00,-2.5744,150.7967,83.08,72,16,5.61
95,East London,ZA,2021-06-07 04:47:01,-33.0153,27.9116,63.54,36,0,8.05
96,Atuona,PF,2021-06-07 04:47:01,-9.8,-139.0333,79.81,68,5,11.03
97,Svetlaya,RU,2021-06-07 04:47:01,46.5389,138.3297,55.56,88,58,4.59
98,Beauly,GB,2021-06-07 04:47:02,57.484,-4.4587,53.1,91,99,0.92
99,Saint-Philippe,RE,2021-06-07 04:47:02,-21.3585,55.7679,74.75,82,97,17.54
100,Kodiak,US,2021-06-07 04:47:03,57.79,-152.4072,63.91,34,1,9.22
101,Sambava,MG,2021-06-07 04:47:03,-14.2667,50.1667,75.51,75,35,14.47
102,Wadi Maliz,TN,2021-06-07 04:47:03,36.4681,8.5495,67.66,85,52,3.33
103,Sao Joao Da Barra,BR,2021-06-07 04:47:04,-21.6403,-41.0511,71.64,89,100,8.59
104,Bilma,NE,2021-06-07 04:47:04,18.6853,12.9164,85.17,19,84,7.83
105,Castro,BR,2021-06-07 04:47:05,-24.7911,-50.0119,56.59,96,99,8.7
106,Erenhot,CN,2021-06-07 04:47:05,43.6475,111.9767,83.68,21,52,20.49
107,College,US,2021-06-07 04:47:05,64.8569,-147.8028,70.12,44,40,8.05
108,Hailey,US,2021-06-07 04:47:06,43.5196,-114.3153,52.9,50,29,1.99
109,Lumphat,KH,2021-06-07 04:47:06,13.4878,106.9816,84.0,81,100,4.07
110,Cabo San Lucas,MX,2021-06-07 04:46:45,22.8909,-109.9124,86.81,63,24,12.44
111,Balikpapan,ID,2021-06-07 04:47:07,-1.2675,116.8289,80.87,84,99,3.29
112,Nicoya,CR,2021-06-07 04:47:08,10.1483,-85.452,76.55,89,77,1.1
113,Hamilton,US,2021-06-07 04:44:01,39.1834,-84.5333,72.43,92,1,5.37
114,Itarema,BR,2021-06-07 04:47:09,-2.9248,-39.9167,75.63,88,13,8.21
115,Cape Town,ZA,2021-06-07 04:46:25,-33.9258,18.4232,66.61,37,0,9.6
116,Stepnyak,KZ,2021-06-07 04:47:09,52.8339,70.7803,70.74,27,4,6.02
117,Bluff,NZ,2021-06-07 04:47:10,-46.6,168.3333,49.8,76,7,5.77
118,Sorland,NO,2021-06-07 04:47:10,67.667,12.6934,51.87,97,100,3.31
119,Seoul,KR,2021-06-07 04:44:27,37.5683,126.9778,77.41,71,90,8.88
120,Qaqortoq,GL,2021-06-07 04:47:11,60.7167,-46.0333,55.9,80,100,3.44
121,Kaitangata,NZ,2021-06-07 04:47:11,-46.2817,169.8464,53.92,78,0,8.23
122,Constitucion,CL,2021-06-07 04:47:12,-35.3333,-72.4167,51.98,62,100,4.76
123,Mar Del Plata,AR,2021-06-07 04:47:12,-38.0023,-57.5575,51.13,68,0,8.99
124,Yanggu,CN,2021-06-07 04:47:12,36.1106,115.7753,97.29,23,100,11.92
125,Hobyo,SO,2021-06-07 04:47:13,5.3505,48.5268,81.19,74,3,21.36
126,Fort Nelson,CA,2021-06-07 04:45:01,58.8053,-122.7002,58.59,41,75,5.75
127,Thompson,CA,2021-06-07 04:47:13,55.7435,-97.8558,53.76,87,90,10.36
128,Cockburn Town,TC,2021-06-07 04:47:14,21.4612,-71.1419,79.79,77,7,21.56
129,Luderitz,NA,2021-06-07 04:46:49,-26.6481,15.1594,64.42,37,8,8.68
130,Torbay,CA,2021-06-07 04:47:14,47.6666,-52.7314,38.57,93,90,9.22
131,Bikin,RU,2021-06-07 04:47:15,46.8161,134.26,77.74,38,44,8.16
132,Cherskiy,RU,2021-06-07 04:47:15,68.75,161.3,64.9,44,86,27.92
133,Hellvik,NO,2021-06-07 04:47:16,59.9156,5.781,53.01,76,56,1.16
134,Ahmadnagar,IN,2021-06-07 04:47:16,19.0833,74.7333,82.4,57,97,11.45
135,Viedma,AR,2021-06-07 04:47:16,-40.8135,-62.9967,49.41,47,100,14.54
136,Faanui,PF,2021-06-07 04:47:17,-16.4833,-151.75,81.59,75,31,10.69
137,Ouegoa,NC,2021-06-07 04:47:17,-20.35,164.4333,73.78,53,99,3.6
138,Bilibino,RU,2021-06-07 04:47:18,68.0546,166.4372,69.64,36,49,15.37
139,Belvedere Marittimo,IT,2021-06-07 04:47:18,39.6179,15.8617,72.18,63,18,3.49
140,Lebu,CL,2021-06-07 04:47:19,-37.6167,-73.65,47.43,81,99,8.08
141,Nchelenge,ZM,2021-06-07 04:47:19,-9.3451,28.734,60.8,76,24,5.91
142,Airai,TL,2021-06-07 04:47:19,-8.9266,125.4092,74.5,45,96,3.11
143,Longyearbyen,SJ,2021-06-07 04:47:20,78.2186,15.6401,35.44,80,75,2.3
144,Voh,NC,2021-06-07 04:47:20,-20.9667,164.7,72.91,60,98,10.38
145,Codrington,AU,2021-06-07 04:47:21,-38.2667,141.9667,65.62,46,100,23.4
146,Vila,PT,2021-06-07 04:47:21,42.0304,-8.1588,50.32,78,100,3.29
147,Baie-Comeau,CA,2021-06-07 04:47:05,49.2168,-68.1489,59.0,93,1,2.53
148,Vitim,RU,2021-06-07 04:47:22,59.4511,112.5578,63.75,27,34,10.94
149,Klaksvik,FO,2021-06-07 04:47:22,62.2266,-6.589,49.12,89,100,7.76
150,Mahon,ES,2021-06-07 04:47:23,39.8885,4.2658,63.16,88,0,6.91
151,Hilo,US,2021-06-07 04:45:11,19.7297,-155.09,76.28,79,90,4.61
152,Murgab,TM,2021-06-07 04:47:23,37.4966,61.9714,84.07,34,0,12.19
153,Jimeta,NG,2021-06-07 04:47:24,9.2833,12.4667,77.77,82,97,1.36
154,Pandharpur,IN,2021-06-07 04:47:24,17.6667,75.3333,85.23,55,39,10.56
155,Saint George,US,2021-06-07 04:47:24,37.1041,-113.5841,90.19,16,1,17.27
156,Penzance,GB,2021-06-07 04:47:25,50.1186,-5.5371,52.81,93,100,9.1
157,Kenai,US,2021-06-07 04:42:54,60.5544,-151.2583,66.29,54,1,18.41
158,Laguna,US,2021-06-07 04:47:25,38.421,-121.4238,76.82,46,1,5.99
159,Kamaishi,JP,2021-06-07 04:47:26,39.2667,141.8833,81.55,55,88,8.16
160,Voi,KE,2021-06-07 04:47:26,-3.3945,38.563,72.14,67,68,5.75
161,Ust-Kulom,RU,2021-06-07 04:47:27,61.6864,53.6902,56.37,35,85,10.49
162,Samfya,ZM,2021-06-07 04:47:27,-11.3649,29.5565,55.31,79,30,7.58
163,Nikolskoye,RU,2021-06-07 04:47:27,59.7035,30.7861,66.79,61,88,2.93
164,Nagybajom,HU,2021-06-07 04:47:28,46.3923,17.5115,63.36,86,100,3.51
165,Chuy,UY,2021-06-07 04:46:58,-33.6971,-53.4616,50.54,79,28,5.93
166,Zhezkazgan,KZ,2021-06-07 04:47:28,47.8043,67.7144,77.41,15,42,17.38
167,Clyde River,CA,2021-06-07 04:47:29,70.4692,-68.5914,35.83,87,90,16.11
168,Traismauer,AT,2021-06-07 04:47:29,48.3519,15.7635,64.83,87,48,3.42
169,Asau,RO,2021-06-07 04:47:30,46.4333,26.4,65.39,57,23,2.48
170,Ishinomaki,JP,2021-06-07 04:47:30,38.4167,141.3,73.4,60,97,6.35
171,Muli,MV,2021-06-07 04:47:30,2.9167,73.5667,83.25,73,50,16.15
172,Pevek,RU,2021-06-07 04:47:31,69.7008,170.3133,52.11,58,3,16.26
173,Margate,GB,2021-06-07 04:47:31,51.3813,1.3862,59.04,89,16,1.01
174,Rio Gallegos,AR,2021-06-07 04:47:31,-51.6226,-69.2181,37.45,87,0,4.61
175,Tiksi,RU,2021-06-07 04:47:32,71.6872,128.8694,42.24,70,100,3.09
176,Port Blair,IN,2021-06-07 04:47:32,11.6667,92.75,84.24,79,75,9.22
177,Pontes E Lacerda,BR,2021-06-07 04:47:33,-15.2261,-59.3353,72.91,60,65,2.55
178,Kiunga,PG,2021-06-07 04:47:33,-6.1219,141.2906,82.17,85,98,3.02
179,Bethel,US,2021-06-07 04:47:34,41.3712,-73.414,75.99,77,20,0.0
180,Haines Junction,CA,2021-06-07 04:47:34,60.7522,-137.5108,48.15,93,100,1.14
181,Darhan,MN,2021-06-07 04:47:35,49.4867,105.9228,45.27,91,100,11.9
182,Chokurdakh,RU,2021-06-07 04:47:35,70.6333,147.9167,47.28,48,36,7.25
183,Bredasdorp,ZA,2021-06-07 04:47:00,-34.5322,20.0403,61.92,39,4,8.25
184,Rio Grande,BR,2021-06-07 04:44:42,-32.035,-52.0986,57.33,78,7,10.76
185,Toowoomba,AU,2021-06-07 04:47:36,-27.55,151.9667,65.14,64,0,1.01
186,Bonfim,BR,2021-06-07 04:47:36,3.0833,-59.95,75.06,86,43,9.26
187,Macau,MO,2021-06-07 04:47:37,22.2006,113.5461,90.81,74,20,8.05
188,Saldanha,ZA,2021-06-07 04:46:40,-33.0117,17.9442,68.05,38,16,27.85
189,Hofn,IS,2021-06-07 04:47:38,64.2539,-15.2082,46.98,99,100,14.25
190,Pangai,TO,2021-06-07 04:47:38,-19.8,-174.35,78.91,69,75,6.91
191,Wembley,AU,2021-06-07 04:47:38,-31.9333,115.8,64.69,55,0,8.48
192,Severo-Kurilsk,RU,2021-06-07 04:47:39,50.6789,156.125,43.09,93,100,14.41
193,Bunia,CD,2021-06-07 04:47:39,1.5667,30.25,65.21,87,41,3.91
194,Shalya,RU,2021-06-07 04:47:40,57.2471,58.7298,65.68,52,72,5.84
195,San Ramon,US,2021-06-07 04:43:52,37.7799,-121.978,63.27,66,1,3.0
196,Mao,ES,2021-06-07 04:47:23,39.8885,4.2658,63.16,88,0,6.91
197,Port Pirie,AU,2021-06-07 04:47:40,-33.1833,138.0167,75.29,33,15,23.6
198,Ribeira Grande,PT,2021-06-07 04:47:41,38.5167,-28.7,64.98,92,100,9.66
199,Oban,GB,2021-06-07 04:47:41,56.4127,-5.4706,48.85,65,100,3.42
200,Puerto Leguizamo,CO,2021-06-07 04:47:42,-0.1934,-74.7819,71.26,100,99,2.73
201,Mehamn,NO,2021-06-07 04:47:42,71.0357,27.8492,44.78,70,0,10.36
202,Grand Gaube,MU,2021-06-07 04:47:43,-20.0064,57.6608,77.38,75,16,5.99
203,Poum,NC,2021-06-07 04:47:43,-20.2333,164.0167,73.72,61,99,17.2
204,Saint-Francois,FR,2021-06-07 04:47:44,46.4154,3.9054,60.19,98,90,2.3
205,Maloy,NO,2021-06-07 04:47:44,61.9353,5.1136,55.06,87,11,9.01
206,Burnie,AU,2021-06-07 04:47:45,-41.0667,145.9167,56.34,82,100,21.61
207,Ketchikan,US,2021-06-07 04:47:45,55.3422,-131.6461,51.78,87,40,10.36
208,Plettenberg Bay,ZA,2021-06-07 04:47:45,-34.0527,23.3716,66.0,35,2,7.72
209,Riyadh,SA,2021-06-07 04:44:24,24.6877,46.7219,95.14,10,0,10.36
210,Ferrol,ES,2021-06-07 04:47:46,43.4832,-8.2369,58.26,86,22,4.79
211,Belaya Gora,RU,2021-06-07 04:47:47,68.5333,146.4167,52.32,47,42,8.41
212,Stolin,BY,2021-06-07 04:47:47,51.8912,26.846,59.74,85,25,7.56
213,Channel-Port Aux Basques,CA,2021-06-07 04:47:47,47.5702,-59.1367,46.87,70,99,7.67
214,Chapais,CA,2021-06-07 04:47:48,49.7834,-74.8492,69.58,76,79,11.07
215,Atar,MR,2021-06-07 04:47:48,20.5169,-13.0499,87.01,18,6,15.64
216,Kaset Sombun,TH,2021-06-07 04:47:49,16.2805,101.9542,88.45,57,100,6.62
217,Ola,RU,2021-06-07 04:47:49,59.5833,151.2833,48.18,78,61,9.1
218,Zhigansk,RU,2021-06-07 04:47:49,66.7697,123.3711,47.7,72,100,15.03
219,Chernyshkovskiy,RU,2021-06-07 04:47:50,48.4219,42.2308,63.73,90,87,9.04
220,Pacific Grove,US,2021-06-07 04:46:26,36.6177,-121.9166,58.01,80,90,4.0
221,Saint-Augustin,CA,2021-06-07 04:47:51,51.226,-58.6502,47.07,77,97,11.41
222,Hasaki,JP,2021-06-07 04:47:03,35.7333,140.8333,84.29,71,100,3.0
223,Saint-Louis,SN,2021-06-07 04:47:51,16.3333,-15.0,80.78,41,6,13.42
224,Caibarien,CU,2021-06-07 04:47:52,22.5206,-79.4669,79.92,83,16,16.24
225,Sept-Iles,CA,2021-06-07 04:47:28,50.2001,-66.3821,47.05,88,75,3.0
226,Karla,EE,2021-06-07 04:47:52,59.3723,24.9275,62.56,67,0,2.3
227,Jenison,US,2021-06-07 04:47:53,42.9072,-85.792,77.72,73,86,9.55
228,Tiznit,MA,2021-06-07 04:47:53,29.5833,-9.5,68.02,63,92,2.24
229,Mehran,IR,2021-06-07 04:47:54,33.1222,46.1646,87.28,9,0,14.12
230,Kisangani,CD,2021-06-07 04:47:54,0.5167,25.2,70.74,99,100,0.98
231,Cayenne,GF,2021-06-07 04:47:17,4.9333,-52.3333,78.1,87,90,1.81
232,Lagoa,PT,2021-06-07 04:47:55,39.05,-27.9833,63.55,91,100,12.86
233,Broken Hill,AU,2021-06-07 04:47:55,-31.95,141.4333,62.31,39,72,18.41
234,Tuy Hoa,VN,2021-06-07 04:45:54,13.0833,109.3,95.58,45,99,8.52
235,Nioro,GM,2021-06-07 04:47:56,13.35,-15.75,76.3,81,85,8.55
236,Sao Filipe,CV,2021-06-07 04:47:56,14.8961,-24.4956,73.18,78,8,12.88
237,Marfino,RU,2021-06-07 04:47:57,55.7028,37.3822,62.85,72,0,5.84
238,Isangel,VU,2021-06-07 04:47:57,-19.55,169.2667,75.31,69,75,11.45
239,Atherton,GB,2021-06-07 04:47:58,53.5237,-2.4935,59.29,89,82,3.38
240,Sidi Ali,DZ,2021-06-07 04:47:58,36.0998,0.4206,65.53,68,15,5.32
241,Frontera,MX,2021-06-07 04:47:59,26.9333,-101.45,91.33,33,6,1.5
242,Roebourne,AU,2021-06-07 04:47:59,-20.7833,117.1333,81.09,36,60,14.41
243,Batabano,CU,2021-06-07 04:47:59,22.7164,-82.2881,77.72,82,58,10.56
244,Olafsvik,IS,2021-06-07 04:48:00,64.8945,-23.7142,46.49,89,100,3.53
245,Bambanglipuro,ID,2021-06-07 04:48:00,-7.95,110.2833,84.88,68,49,10.02
246,Port-Gentil,GA,2021-06-07 04:48:01,-0.7193,8.7815,77.85,88,100,7.29
247,Fortuna,US,2021-06-07 04:48:01,40.5982,-124.1573,54.32,56,20,1.01
248,Kleinmachnow,DE,2021-06-07 04:48:01,52.4,13.2333,65.01,71,0,5.3
249,Sydney,AU,2021-06-07 04:45:58,-33.8679,151.2073,68.76,57,0,1.01
250,Kahului,US,2021-06-07 04:48:02,20.8947,-156.47,80.62,73,40,17.27
251,Acapulco,MX,2021-06-07 04:47:33,16.8634,-99.8901,82.96,81,100,8.14
252,Nalut,LY,2021-06-07 04:48:03,30.3333,10.85,80.62,20,38,10.74
253,Northam,GB,2021-06-07 04:48:03,51.0333,-4.2167,54.14,96,82,4.7
254,Shihezi,CN,2021-06-07 04:48:03,44.3,86.0333,77.45,19,48,11.03
255,Axim,GH,2021-06-07 04:48:04,4.8699,-2.2405,77.58,87,29,7.29
256,Hithadhoo,MV,2021-06-07 04:47:04,-0.6,73.0833,83.32,72,22,12.82
257,Gold Coast,AU,2021-06-07 04:47:52,-28.0,153.4333,72.34,60,1,1.99
258,Semnan,IR,2021-06-07 04:47:09,35.5729,53.3971,86.49,19,0,4.07
259,Diban,SY,2021-06-07 04:48:05,35.0365,40.5167,79.29,29,0,11.61
260,Pandan,PH,2021-06-07 04:48:05,14.0453,124.1694,84.4,75,100,0.13
261,Kattivakkam,IN,2021-06-07 04:48:06,13.2167,80.3167,93.29,69,83,8.16
262,Koutsouras,GR,2021-06-07 04:48:06,35.0339,25.9469,74.77,49,45,2.44
263,Namatanai,PG,2021-06-07 04:48:07,-3.6667,152.4333,83.62,69,71,5.75
264,Shubarkuduk,KZ,2021-06-07 04:48:07,49.1447,56.4872,73.42,34,96,7.38
265,Havre-Saint-Pierre,CA,2021-06-07 04:47:16,50.2334,-63.5986,43.16,87,75,0.0
266,Lakes Entrance,AU,2021-06-07 04:48:08,-37.8811,147.981,62.58,52,91,13.65
267,Sioux Lookout,CA,2021-06-07 04:48:08,50.1001,-91.917,68.38,56,1,8.05
268,Morros,BR,2021-06-07 04:48:08,-9.4467,-46.3003,68.25,50,92,2.53
269,Dalianwan,CN,2021-06-07 04:48:09,39.0286,121.695,64.44,88,75,10.25
270,Marzuq,YE,2021-06-07 04:48:09,14.4,46.4667,86.4,24,59,5.66
271,Nuuk,GL,2021-06-07 04:48:10,64.1835,-51.7216,39.81,93,90,2.3
272,Cam Ranh,VN,2021-06-07 04:48:10,11.9214,109.1591,96.76,41,20,7.16
273,Toktogul,KG,2021-06-07 04:48:10,41.8708,72.9402,69.87,71,3,2.98
274,Frederikshavn,DK,2021-06-07 04:48:11,57.4407,10.5366,57.15,81,93,8.97
275,Abilene,US,2021-06-07 04:48:11,32.4487,-99.7331,79.5,73,1,3.0
276,Palmer,US,2021-06-07 04:48:11,42.1584,-72.3287,74.84,78,1,4.21
277,Faya,SA,2021-06-07 04:48:12,18.3851,42.4509,70.32,24,6,1.88
278,Lampa,CL,2021-06-07 04:48:12,-33.2833,-70.9,55.63,74,90,1.05
279,Salalah,OM,2021-06-07 04:48:13,17.0151,54.0924,84.29,89,75,6.91
280,Bereda,ES,2021-06-07 04:48:13,43.2686,-7.5406,53.91,97,89,2.62
281,San Francisco Del Mar,MX,2021-06-07 04:48:13,16.2333,-94.65,84.11,78,95,9.64
282,Baykit,RU,2021-06-07 04:48:14,61.67,96.37,42.28,96,100,5.93
283,Ruwi,OM,2021-06-07 04:48:15,23.5996,58.5507,89.29,69,20,6.24
284,Ordzhonikidze,KZ,2021-06-07 04:48:15,52.4411,61.7408,72.1,26,98,2.98
285,Cururupu,BR,2021-06-07 04:48:15,-1.8283,-44.8683,73.6,95,59,2.82
286,Kutum,SD,2021-06-07 04:48:16,14.2,24.6667,78.01,18,14,4.27
287,Huixtla,MX,2021-06-07 04:48:16,15.15,-92.4667,78.1,91,100,2.39
288,Bartica,GY,2021-06-07 04:48:17,6.4,-58.6167,75.52,99,72,0.74
289,Talakan,RU,2021-06-07 04:48:17,50.3167,130.3667,76.78,36,52,7.36
290,Lac Du Bonnet,CA,2021-06-07 04:48:18,50.2536,-96.0612,63.75,69,9,8.23
291,Ballina,AU,2021-06-07 04:48:18,-28.8667,153.5667,69.98,52,30,8.05
292,Saskylakh,RU,2021-06-07 04:48:18,71.9167,114.0833,45.95,40,97,6.67
293,Husavik,IS,2021-06-07 04:48:19,66.0449,-17.3389,44.51,72,31,9.01
294,Katsuura,JP,2021-06-07 04:47:21,35.1333,140.3,77.04,75,99,1.21
295,Mlonggo,ID,2021-06-07 04:48:19,-6.5333,110.7,87.69,62,30,5.28
296,Hami,CN,2021-06-07 04:48:20,42.8,93.45,79.93,10,2,9.33
297,Ajdabiya,LY,2021-06-07 04:48:20,30.7554,20.2263,72.9,40,1,8.34
298,Liverpool,GB,2021-06-07 04:48:21,53.4106,-2.9779,59.68,78,40,2.57
299,San Juan,AR,2021-06-07 04:48:21,-31.5375,-68.5364,65.73,66,1,0.4
300,Camana,PE,2021-06-07 04:48:22,-16.6228,-72.7111,62.92,85,41,6.35
301,Kungurtug,RU,2021-06-07 04:48:22,50.5994,97.5228,52.56,44,89,7.47
302,Batagay,RU,2021-06-07 04:48:22,67.6333,134.6333,58.6,37,100,6.46
303,Sibolga,ID,2021-06-07 04:48:23,1.7427,98.7792,85.69,61,28,5.5
304,Ekhabi,RU,2021-06-07 04:48:23,53.5102,142.9671,39.31,94,100,12.77
305,Sangar,RU,2021-06-07 04:48:23,63.9242,127.4739,47.14,84,100,3.27
306,Odweyne,SO,2021-06-07 04:48:24,9.4092,45.064,78.4,48,1,18.7
307,Lethem,GY,2021-06-07 04:48:24,3.3803,-59.7968,74.07,91,33,8.75
308,Caravelas,BR,2021-06-07 04:48:25,-17.7125,-39.2481,71.53,86,53,3.04
309,Anuradhapura,LK,2021-06-07 04:48:25,8.3565,80.4173,88.72,59,61,13.58
310,Maracaibo,VE,2021-06-07 04:48:25,10.6317,-71.6406,76.53,87,100,2.75
311,Quelimane,MZ,2021-06-07 04:48:26,-17.8786,36.8883,60.75,93,40,5.01
312,Port Macquarie,AU,2021-06-07 04:48:26,-31.4333,152.9167,67.96,53,32,8.01
313,Ewa Beach,US,2021-06-07 04:48:27,21.3156,-158.0072,82.35,61,40,10.36
314,Pitimbu,BR,2021-06-07 04:48:27,-7.4706,-34.8086,75.79,85,15,9.28
315,Kidal,ML,2021-06-07 04:48:27,18.4411,1.4078,87.24,14,13,6.04
316,Apatity,RU,2021-06-07 04:48:28,67.5641,33.4031,46.56,52,16,3.18
317,Taoudenni,ML,2021-06-07 04:48:28,22.6783,-3.9836,95.49,11,48,7.99
318,Pechory,RU,2021-06-07 04:48:29,57.8164,27.6119,58.46,64,41,5.23
319,Dois Vizinhos,BR,2021-06-07 04:48:29,-25.7336,-53.0572,58.05,98,100,3.38
320,Araouane,ML,2021-06-07 04:48:29,18.9048,-3.5265,91.2,20,0,2.53
321,Halifax,CA,2021-06-07 04:44:57,44.6453,-63.5724,60.69,89,80,3.0
322,Tromso,NO,2021-06-07 04:48:30,69.6496,18.957,55.38,62,0,2.3
323,Raga,SS,2021-06-07 04:48:30,8.4596,25.678,70.81,90,100,6.85
324,Palo Alto,US,2021-06-07 04:47:40,37.4419,-122.143,63.05,66,1,1.99
325,Culleredo,ES,2021-06-07 04:48:31,43.2879,-8.3886,57.83,91,20,3.44
326,Eureka,US,2021-06-07 04:48:31,40.8021,-124.1637,54.57,76,100,1.99
327,Touros,BR,2021-06-07 04:48:32,-5.1989,-35.4608,74.3,86,54,12.53
328,Ternate,ID,2021-06-07 04:48:32,0.8,127.4,83.95,71,82,6.91
329,Letka,RU,2021-06-07 04:48:33,59.6011,49.4232,66.96,63,38,6.33
330,Coihaique,CL,2021-06-07 04:48:33,-45.5752,-72.0662,42.75,87,75,3.44
331,Samarai,PG,2021-06-07 04:48:33,-10.6167,150.6667,77.0,91,100,13.29
332,Vostok,RU,2021-06-07 04:48:34,46.4856,135.8833,68.52,47,59,9.08
333,Tuatapere,NZ,2021-06-07 04:48:34,-46.1333,167.6833,49.82,87,7,3.38
334,Fairbanks,US,2021-06-07 04:48:35,64.8378,-147.7164,70.14,44,1,5.75
335,Quatre Cocos,MU,2021-06-07 04:48:35,-20.2078,57.7625,77.09,77,56,19.26
336,Upernavik,GL,2021-06-07 04:48:35,72.7868,-56.1549,34.12,81,18,6.55
337,Belyy Yar,RU,2021-06-07 04:48:36,53.6039,91.3903,66.09,59,0,4.05
338,Manowa,SL,2021-06-07 04:48:36,8.1667,-10.75,72.66,100,100,1.63
339,Srandakan,ID,2021-06-07 04:48:37,-7.9386,110.2506,84.92,68,49,9.86
340,Kavaratti,IN,2021-06-07 04:48:37,10.5669,72.642,82.89,76,99,13.22
341,Melton Mowbray,GB,2021-06-07 04:48:37,52.7659,-0.8869,58.42,51,44,0.76
342,La Rioja,ES,2021-06-07 04:48:38,42.25,-2.5,47.05,63,41,4.5
343,Ati,TD,2021-06-07 04:48:38,13.2154,18.3353,84.56,45,59,8.05
344,Novobirilyussy,RU,2021-06-07 04:48:38,56.9514,90.6661,62.6,82,100,11.16
345,Kruisfontein,ZA,2021-06-07 04:48:39,-34.0033,24.7314,57.38,30,0,10.0
346,Curup,ID,2021-06-07 04:48:40,-3.4667,102.5333,83.41,54,51,4.92
347,Virginia Beach,US,2021-06-07 04:46:22,36.8529,-75.978,80.01,88,1,6.91
348,Maniitsoq,GL,2021-06-07 04:48:40,65.4167,-52.9,38.89,92,100,5.7
349,Yeniseysk,RU,2021-06-07 04:48:41,58.4497,92.1703,53.98,84,98,8.61
350,Nishihara,JP,2021-06-07 04:48:41,26.1842,127.7558,85.66,70,75,9.95
351,Thessalon,CA,2021-06-07 04:48:41,46.2501,-83.5666,72.09,88,1,4.76
352,Marsh Harbour,BS,2021-06-07 04:48:42,26.5412,-77.0636,78.37,78,100,15.68
353,Juba,SS,2021-06-07 04:48:42,4.8517,31.5825,72.36,87,38,3.65
354,Surt,LY,2021-06-07 04:48:42,31.2089,16.5887,73.45,40,2,12.06
355,Farkhor,TJ,2021-06-07 04:48:43,37.4922,69.4036,99.48,19,0,0.92
356,Maine-Soroa,NE,2021-06-07 04:48:43,13.2114,12.0241,81.23,54,54,5.66
357,Bokoro,TD,2021-06-07 04:48:44,12.3807,17.0568,85.77,45,78,6.08
358,Puerto Escondido,MX,2021-06-07 04:48:44,15.85,-97.0667,81.77,85,100,9.93
359,Lieksa,FI,2021-06-07 04:48:44,63.3167,30.0167,54.84,47,41,9.53
360,Kandalaksha,RU,2021-06-07 04:48:45,67.162,32.4123,48.13,59,0,4.54
361,Vestmanna,FO,2021-06-07 04:48:45,62.1564,-7.1664,47.32,100,90,7.02
362,Brae,GB,2021-06-07 04:48:46,60.3964,-1.353,44.51,75,97,2.33
363,Fayetteville,US,2021-06-07 04:47:44,35.0527,-78.8784,75.61,93,75,1.01
364,Kichmengskiy Gorodok,RU,2021-06-07 04:48:46,59.9816,45.7854,62.96,69,78,10.67
365,Leningradskiy,RU,2021-06-07 04:48:47,69.3833,178.4167,43.43,68,7,15.39
366,Kanniyakumari,IN,2021-06-07 04:48:47,8.0833,77.5667,84.87,73,32,18.41
367,Gat,IL,2021-06-07 04:48:48,31.61,34.7642,75.4,100,0,1.52
368,Okhotsk,RU,2021-06-07 04:48:48,59.3833,143.3,48.07,77,100,8.9
369,Huarmey,PE,2021-06-07 04:48:48,-10.0681,-78.1522,64.83,84,90,6.46
370,Alofi,NU,2021-06-07 04:48:49,-19.0595,-169.9187,78.69,69,8,5.75
371,Havoysund,NO,2021-06-07 04:48:49,70.9963,24.6622,54.48,57,12,7.72
372,Sarai Naurang,PK,2021-06-07 04:48:50,32.8259,70.7814,103.84,20,0,4.29
373,Tura,IN,2021-06-07 04:48:50,25.5198,90.2201,85.33,69,30,7.09
374,Vestmannaeyjar,IS,2021-06-07 04:48:00,63.4427,-20.2734,47.44,91,100,18.21
375,Viareggio,IT,2021-06-07 04:48:51,43.8735,10.2558,66.24,85,100,2.48
376,Turukhansk,RU,2021-06-07 04:48:51,65.8167,87.9833,38.98,60,88,10.74
377,Sakakah,SA,2021-06-07 04:48:52,29.9697,40.2064,81.97,17,0,5.75
378,Turayf,SA,2021-06-07 04:48:52,31.6725,38.6637,70.05,32,0,16.11
379,Najran,SA,2021-06-07 04:48:53,17.4924,44.1277,79.45,19,25,5.53
380,Salvador,SV,2021-06-07 04:46:05,13.8333,-88.9167,75.6,96,19,1.52
381,Victor Harbor,AU,2021-06-07 04:48:53,-35.5667,138.6167,70.47,56,49,5.01
382,Tecpan,GT,2021-06-07 04:48:54,14.7623,-90.9947,56.61,91,54,0.81
383,Maragogi,BR,2021-06-07 04:45:37,-9.0122,-35.2225,74.14,87,44,5.14
384,Yumen,CN,2021-06-07 04:48:55,40.2833,97.2,72.86,13,83,14.5
385,Neepawa,CA,2021-06-07 04:48:55,50.2289,-99.4664,59.81,66,3,7.0
386,Don Benito,ES,2021-06-07 04:48:55,38.9563,-5.8616,63.91,40,0,1.74
387,Alta Floresta,BR,2021-06-07 04:48:56,-9.8756,-56.0861,73.08,65,100,3.96
388,Pisco,PE,2021-06-07 04:47:20,-13.7,-76.2167,62.65,88,90,1.14
389,Ozernovskiy,RU,2021-06-07 04:48:56,51.5,156.5167,45.09,91,99,5.57
390,Esperance,AU,2021-06-07 04:47:47,-33.8667,121.9,58.84,63,81,24.25
391,Aquiraz,BR,2021-06-07 04:46:57,-3.9014,-38.3911,78.89,88,23,6.96
392,Waddan,LY,2021-06-07 04:48:57,29.1614,16.139,74.91,28,1,7.9
393,Tayu,ID,2021-06-07 04:48:57,-6.5397,111.0518,87.44,61,31,7.76
394,Takapau,NZ,2021-06-07 04:48:58,-40.0333,176.35,56.17,86,100,8.41
395,Aginskoye,RU,2021-06-07 04:48:59,51.1,114.53,82.56,19,100,14.97
396,Andros Town,BS,2021-06-07 04:48:59,24.7,-77.7667,78.76,79,71,16.46
397,Owando,CG,2021-06-07 04:48:59,-0.4819,15.8999,70.25,97,100,0.74
398,Russell,US,2021-06-07 04:45:49,32.3502,-85.1999,74.16,88,75,3.69
399,Gatton,AU,2021-06-07 04:49:00,-27.55,152.2833,71.53,46,0,3.98
400,Pangnirtung,CA,2021-06-07 04:47:15,66.1451,-65.7125,30.09,88,97,3.98
401,Ostrovnoy,RU,2021-06-07 04:48:21,68.0531,39.5131,41.02,68,32,5.32
402,Soria,ES,2021-06-07 04:49:01,41.6667,-2.6667,45.86,72,9,2.42
403,Laranjeiras Do Sul,BR,2021-06-07 04:49:02,-25.4078,-52.4161,56.62,97,100,3.87
404,Sarangani,PH,2021-06-07 04:49:02,5.4033,125.4636,83.84,70,86,5.82
405,Takaka,NZ,2021-06-07 04:49:02,-40.85,172.8,60.39,92,98,5.82
406,Kurilsk,RU,2021-06-07 04:49:03,45.2333,147.8833,47.5,95,84,8.5
407,Harer,ET,2021-06-07 04:49:03,9.3094,42.1258,64.24,73,5,3.78
408,Santo Antonio Do Sudoeste,BR,2021-06-07 04:49:04,-26.0736,-53.7253,59.18,98,100,3.09
409,Mukilteo,US,2021-06-07 04:49:04,47.9445,-122.3046,51.94,93,75,12.66
410,Bubaque,GW,2021-06-07 04:46:51,11.2833,-15.8333,79.27,81,100,10.98
411,Saint Anthony,US,2021-06-07 04:48:42,45.0205,-93.218,82.54,51,1,9.01
412,Ivybridge,GB,2021-06-07 04:49:05,50.3904,-3.9191,52.83,94,52,2.59
413,Atambua,ID,2021-06-07 04:49:05,-9.1061,124.8925,83.48,50,96,2.21
414,Kendari,ID,2021-06-07 04:48:58,-3.945,122.4989,85.68,61,71,5.99
415,Araguacu,BR,2021-06-07 04:49:06,-12.9306,-49.8264,73.27,55,99,4.12
416,Grindavik,IS,2021-06-07 04:49:06,63.8424,-22.4338,48.15,93,75,6.87
417,La Ronge,CA,2021-06-07 04:49:07,55.1001,-105.2842,53.85,71,75,0.0
418,Porto Novo,BJ,2021-06-07 04:49:07,6.4965,2.6036,80.42,89,63,2.82
419,Wewak,PG,2021-06-07 04:49:08,-3.5534,143.6268,81.72,79,100,2.57
420,Puerto Narino,CO,2021-06-07 04:49:08,-3.7703,-70.3831,75.15,99,96,1.41
421,Bonavista,CA,2021-06-07 04:49:08,48.6499,-53.1147,35.6,80,95,1.36
422,Te Anau,NZ,2021-06-07 04:49:09,-45.4167,167.7167,43.68,90,1,1.05
423,Oistins,BB,2021-06-07 04:49:09,13.0667,-59.5333,80.69,65,40,20.71
424,Portland,US,2021-06-07 04:49:10,45.5234,-122.6762,55.78,67,38,1.01
425,Isla Vista,US,2021-06-07 04:49:10,34.4133,-119.861,64.35,68,75,3.44
426,Kamenka,RU,2021-06-07 04:49:11,51.3223,42.7678,62.8,78,93,4.92
427,Tautira,PF,2021-06-07 04:49:11,-17.7333,-149.15,80.62,69,5,6.71
428,San Andres,CO,2021-06-07 04:49:11,12.5847,-81.7006,82.42,78,40,17.27
429,Eyl,SO,2021-06-07 04:49:12,7.9803,49.8164,84.56,60,2,26.87
430,Dunedin,NZ,2021-06-07 04:47:18,-45.8742,170.5036,50.81,78,66,15.99
431,Khash,IR,2021-06-07 04:49:12,28.2211,61.2158,90.23,29,0,0.98
432,Ljungby,SE,2021-06-07 04:49:13,56.8332,13.9408,61.38,67,25,4.7
433,Harnosand,SE,2021-06-07 04:49:13,62.6323,17.9379,61.0,79,100,6.44
434,Itapora,BR,2021-06-07 04:49:13,-22.0799,-54.7874,71.33,53,95,3.49
435,Vila Velha,BR,2021-06-07 04:49:14,-20.3297,-40.2925,69.94,97,0,1.99
436,Sabha,LY,2021-06-07 04:49:14,27.0377,14.4283,78.69,19,56,10.02
437,Dingle,PH,2021-06-07 04:49:15,10.9995,122.6711,88.03,61,100,6.53
438,Xuddur,SO,2021-06-07 04:49:15,4.1213,43.8894,75.51,69,27,19.35
439,Ranong,TH,2021-06-07 04:49:15,9.9658,98.6348,82.33,78,100,7.27
440,Emba,KZ,2021-06-07 04:49:16,48.8264,58.1442,69.12,40,100,10.22
441,Ayagoz,KZ,2021-06-07 04:49:16,47.9714,80.4392,72.61,21,24,6.38
442,Moose Factory,CA,2021-06-07 04:49:16,51.2585,-80.6094,78.8,65,40,11.5
443,Konibodom,TJ,2021-06-07 04:49:17,40.2843,70.4426,89.37,22,58,12.01
444,Awallan,PH,2021-06-07 04:49:17,17.9244,121.913,91.87,58,100,3.47
445,Padang,ID,2021-06-07 04:47:23,-0.9492,100.3543,82.45,62,8,5.68
446,Zenzeli,RU,2021-06-07 04:49:18,45.9241,47.0474,73.13,47,98,8.5
447,Christchurch,NZ,2021-06-07 04:44:21,-43.5333,172.6333,51.03,94,90,1.99
448,Omsukchan,RU,2021-06-07 04:49:18,62.5333,155.8,54.36,59,100,7.4
449,Biak,ID,2021-06-07 04:49:19,-0.9131,122.8766,82.29,70,87,6.04
450,Keningau,MY,2021-06-07 04:49:19,5.3378,116.1602,88.25,50,81,0.89
451,Kalabo,ZM,2021-06-07 04:49:20,-14.97,22.6814,47.95,76,89,5.79
452,Zarand,IR,2021-06-07 04:49:20,30.8127,56.564,90.57,8,0,3.09
453,Verkhnevilyuysk,RU,2021-06-07 04:49:20,63.4453,120.3167,59.18,26,35,16.73
454,Saint-Pierre,RE,2021-06-07 04:49:21,-21.3393,55.4781,74.84,88,75,21.85
455,Inhambane,MZ,2021-06-07 04:49:21,-23.865,35.3833,66.18,77,40,0.0
456,Batagay-Alyta,RU,2021-06-07 04:49:21,67.8006,130.4114,49.96,61,100,7.78
457,Banda Aceh,ID,2021-06-07 04:47:54,5.5577,95.3222,86.07,63,99,12.77
458,Rassvet,RU,2021-06-07 04:49:22,46.8333,40.75,63.07,91,86,22.37
459,Aktash,RU,2021-06-07 04:49:22,50.3,87.7333,54.21,28,7,4.07
460,Mana,GF,2021-06-07 04:49:23,5.6592,-53.7767,75.24,90,100,3.33
461,Adre,TD,2021-06-07 04:49:23,13.4667,22.2,80.49,48,47,2.73
462,Elizabeth City,US,2021-06-07 04:49:24,36.2946,-76.2511,79.02,92,1,1.99
463,Trairi,BR,2021-06-07 04:48:37,-3.2778,-39.2689,76.41,86,7,6.58
464,Grants,US,2021-06-07 04:49:24,35.1473,-107.8514,73.63,14,1,10.36
465,Poya,NC,2021-06-07 04:49:24,-21.35,165.15,72.64,60,80,10.09
466,Morondava,MG,2021-06-07 04:49:25,-20.2833,44.2833,72.73,50,6,13.94
467,Iqaluit,CA,2021-06-07 04:48:18,63.7506,-68.5145,31.73,93,90,3.0
468,Manacapuru,BR,2021-06-07 04:49:25,-3.2997,-60.6206,75.78,80,84,3.2
469,Port Hardy,CA,2021-06-07 04:49:26,50.6996,-127.4199,51.98,82,75,0.0
470,Holetown,BB,2021-06-07 04:49:26,13.1867,-59.6381,81.16,80,85,19.15
471,Englehart,CA,2021-06-07 04:46:18,47.8169,-79.8664,75.76,69,1,12.17
472,Buta,CD,2021-06-07 04:49:27,2.7858,24.73,69.73,95,100,0.49
473,Cap Malheureux,MU,2021-06-07 04:49:27,-19.9842,57.6142,77.47,74,14,5.01
474,Adrar,MR,2021-06-07 04:49:28,20.5022,-10.0711,87.01,15,0,16.73
475,Labuhan,ID,2021-06-07 04:49:28,-6.8844,112.2051,88.05,60,93,2.77
476,Lata,PT,2021-06-07 04:49:29,40.1629,-8.3327,61.21,94,7,1.23
477,Zhangye,CN,2021-06-07 04:49:29,38.9342,100.4517,77.29,21,30,11.95
478,Nanortalik,GL,2021-06-07 04:46:52,60.1432,-45.2371,41.54,78,100,5.41
479,Nanfeng,CN,2021-06-07 04:49:29,23.7434,111.7959,93.02,48,8,2.55
480,Buncrana,IE,2021-06-07 04:49:30,55.1333,-7.45,49.42,90,100,4.68
481,Florianopolis,BR,2021-06-07 04:49:30,-27.6146,-48.5012,66.43,94,75,8.05
482,General Roca,AR,2021-06-07 04:48:55,-39.0333,-67.5833,46.8,48,91,6.62
483,Kismayo,SO,2021-06-07 04:49:31,-0.3582,42.5454,78.51,80,66,15.35
484,Bagru,IN,2021-06-07 04:49:31,26.8088,75.5423,93.54,29,12,16.96
485,Sur,OM,2021-06-07 04:49:32,22.5667,59.5289,89.65,60,0,8.61
486,Bandar-E Lengeh,IR,2021-06-07 04:49:32,26.5579,54.8807,91.51,70,2,18.41
487,Lubao,PH,2021-06-07 04:49:33,14.9167,120.55,94.71,51,75,7.58
488,Sawtell,AU,2021-06-07 04:49:33,-30.3833,153.1,69.82,53,18,10.36
489,Staveley,GB,2021-06-07 04:49:33,53.2667,-1.35,57.29,95,88,1.32
490,Calama,CL,2021-06-07 04:49:34,-22.4667,-68.9333,39.69,14,0,23.02
491,Mayahi,NE,2021-06-07 04:49:34,13.9553,7.6712,80.92,52,92,6.44
492,Miandrivazo,MG,2021-06-07 04:49:35,-19.5167,45.4667,72.27,57,3,5.39
493,Nyurba,RU,2021-06-07 04:49:35,63.2842,118.3319,58.55,27,54,16.8
494,Avera,US,2021-06-07 04:49:35,33.194,-82.5271,73.27,94,100,6.42
495,Tabas,IR,2021-06-07 04:49:36,33.5959,56.9244,101.8,8,0,5.59
496,Ponta Delgada,PT,2021-06-07 04:49:36,37.7333,-25.6667,63.32,88,40,0.0
497,Ilhabela,BR,2021-06-07 04:48:14,-23.7781,-45.3581,70.81,90,88,6.73
498,Shahr-E Kord,IR,2021-06-07 04:49:37,32.3256,50.8644,69.57,23,0,4.61
499,Yatou,CN,2021-06-07 04:49:37,37.15,122.3833,77.76,59,97,8.14
500,Yulara,AU,2021-06-07 04:49:38,-25.2406,130.9889,69.64,26,62,6.91
501,Pascagoula,US,2021-06-07 04:49:38,30.3658,-88.5561,73.42,96,1,11.43
502,Mahe,IN,2021-06-07 04:49:38,11.7,75.5333,84.79,69,55,2.82
503,Mabay,PH,2021-06-07 04:49:39,6.0577,124.4666,89.51,67,75,5.73
504,Praia Da Vitoria,PT,2021-06-07 04:49:39,38.7333,-27.0667,63.75,88,40,5.77
505,Berlevag,NO,2021-06-07 04:49:40,70.8578,29.0864,42.8,63,2,3.2
506,Beringovskiy,RU,2021-06-07 04:49:40,63.05,179.3167,34.38,99,100,3.44
507,Champerico,GT,2021-06-07 04:49:40,14.3,-91.9167,83.35,76,22,2.53
508,Rumoi,JP,2021-06-07 04:49:41,43.9344,141.6428,62.51,73,27,9.57
509,Lac-Au-Saumon,CA,2021-06-07 04:49:41,48.421,-67.3476,57.7,86,50,5.37
510,Ulety,RU,2021-06-07 04:49:42,51.3572,112.4849,73.02,43,100,6.69
511,Corinth,GR,2021-06-07 04:49:42,37.9407,22.9573,75.69,68,14,5.97
512,Yerbogachen,RU,2021-06-07 04:48:39,61.2767,108.0108,52.59,45,75,11.43
513,Znamenskoye,RU,2021-06-07 04:49:43,57.1281,73.8282,70.79,49,74,5.06
514,Akyab,MM,2021-06-07 04:49:43,20.15,92.9,82.58,83,100,10.47
515,Flinders,AU,2021-06-07 04:49:43,-34.5833,150.8552,69.19,59,99,1.99
516,Ahuimanu,US,2021-06-07 04:49:44,21.4447,-157.8378,82.11,65,75,13.8
517,Tessalit,ML,2021-06-07 04:49:44,20.1986,1.0114,88.79,11,0,8.97
518,Warri,NG,2021-06-07 04:49:45,5.5167,5.75,70.3,95,80,2.33
519,Hadishahr,AZ,2021-06-07 04:49:45,38.8431,45.6635,64.89,52,0,1.61
520,Betare Oya,CM,2021-06-07 04:49:45,5.6,14.0833,65.62,99,86,0.96
521,Kumluca,TR,2021-06-07 04:49:46,36.3703,30.2869,75.74,38,11,2.62
522,Pontianak,ID,2021-06-07 04:49:46,-0.0333,109.3333,89.58,62,20,1.95
523,Gaya,IN,2021-06-07 04:47:53,24.7833,85.0,94.91,52,88,13.8
524,Kaseda,JP,2021-06-07 04:49:47,31.4167,130.3167,81.63,68,100,2.89
525,Pasni,PK,2021-06-07 04:49:47,25.2631,63.471,84.88,67,41,7.25
526,Ayorou,NE,2021-06-07 04:49:47,14.7308,0.9174,83.91,51,21,13.29
527,Soyo,AO,2021-06-07 04:49:48,-6.1349,12.3689,74.3,92,14,5.03
528,Katherine,AU,2021-06-07 04:49:48,-14.4667,132.2667,86.32,39,40,4.29
529,Marystown,CA,2021-06-07 04:46:07,47.1666,-55.1483,42.08,83,95,8.37
530,Horta,PT,2021-06-07 04:49:49,38.5333,-28.6333,64.13,93,100,10.13
531,Chimore,BO,2021-06-07 04:49:49,-16.9833,-65.1333,68.97,90,99,1.12
532,Khandyga,RU,2021-06-07 04:49:50,62.6667,135.6,82.38,37,100,13.13
533,Esso,RU,2021-06-07 04:49:51,55.9333,158.7,51.35,81,100,2.91
534,Malanje,AO,2021-06-07 04:49:51,-9.5402,16.341,55.24,60,11,4.18
535,Bowen,AU,2021-06-07 04:49:52,-20.0167,148.2333,71.82,61,95,15.46
536,Bathsheba,BB,2021-06-07 04:49:52,13.2167,-59.5167,81.21,65,40,18.54
537,Lindi,TZ,2021-06-07 04:49:53,-10.0,39.7167,67.44,72,0,4.7
538,Wau,SS,2021-06-07 04:49:53,7.7029,27.9953,73.72,86,95,3.67
539,Siteki,SZ,2021-06-07 04:49:54,-26.45,31.95,49.86,80,29,2.95
540,Rutana,BI,2021-06-07 04:49:54,-3.8667,30.1,59.04,77,100,2.68
541,Kununurra,AU,2021-06-07 04:49:54,-15.7667,128.7333,87.78,18,16,6.91
542,Parrita,CR,2021-06-07 04:49:55,9.5201,-84.3225,82.17,87,76,3.58
543,George Town,MY,2021-06-07 04:49:55,5.4112,100.3354,88.9,69,20,5.01
544,Riosucio,CO,2021-06-07 04:49:55,5.4216,-75.7032,61.23,98,100,1.1
545,Reghiu,RO,2021-06-07 04:49:56,45.7833,26.8333,60.26,69,7,2.19
546,Manadhoo,MV,2021-06-07 04:49:56,5.7667,73.3833,82.71,77,100,17.45
547,Sovetskiy,RU,2021-06-07 04:49:57,61.3614,63.5842,55.27,35,94,4.36
548,Flin Flon,CA,2021-06-07 04:49:58,54.7682,-101.865,49.87,70,100,6.51
549,Shelbyville,US,2021-06-07 04:49:58,35.4834,-86.4603,74.12,88,90,8.05
